{"lastUpdatedOther":1743603912,"ttl":3600,"data":{"stations":[{"station_id":213688169,"stationCode":"16107","name":"Benjamin Godard - Victor Hugo","lat":48.865983,"lon":2.275725,"capacity":0,"station_opening_hours":null},{"station_id":19179944124,"stationCode":"40001","name":"Hôpital Mondor","lat":48.798922410229,"lon":2.4537451531298,"capacity":0,"station_opening_hours":null},{"station_id":17278902806,"stationCode":"44015","name":"Rouget de L'isle - Watteau","lat":48.778192750803,"lon":2.3963020229163,"capacity":0,"station_opening_hours":null},{"station_id":36255,"stationCode":"9020","name":"Toudouze - Clauzel","lat":48.87929591733507,"lon":2.3373600840568547,"capacity":0,"rental_methods":["CREDITCARD"],"station_opening_hours":null},{"station_id":251039991,"stationCode":"14111","name":"Cassini - Denfert-Rochereau","lat":48.837525839067,"lon":2.3360354080796,"capacity":0,"rental_methods":["CREDITCARD"],"station_opening_hours":null},{"station_id":85002689,"stationCode":"14014","name":"Jourdan - Stade Charléty","lat":48.819428333369,"lon":2.3433353751898,"capacity":0,"rental_methods":["CREDITCARD"],"station_opening_hours":null},{"station_id":2515829865,"stationCode":"32017","name":"Basilique","lat":48.93626891059109,"lon":2.3588666820200914,"capacity":22,"rental_methods":["CREDITCARD"],"station_opening_hours":null},{"station_id":516709288,"stationCode":"11104","name":"Charonne - Robert et Sonia Delaunay","lat":48.855907555969,"lon":2.3925706744194,"capacity":0,"station_opening_hours":null},{"station_id":120827885,"stationCode":"8026","name":"Messine - Place Du Pérou","lat":48.875448033960744,"lon":2.315508019010038,"capacity":0,"rental_methods":["CREDITCARD"],"station_opening_hours":null},{"station_id":66491398,"stationCode":"13007","name":"Le Brun - Gobelins","lat":48.835092787824,"lon":2.3534681351338,"capacity":0,"rental_methods":["CREDITCARD"],"station_opening_hours":null},{"station_id":37874517,"stationCode":"6003","name":"Saint-Sulpice","lat":48.85165383178419,"lon":2.3308077827095985,"capacity":0,"rental_methods":["CREDITCARD"],"station_opening_hours":null},{"station_id":210565680,"stationCode":"7002","name":"Vaneau - Sèvres","lat":48.848563233059,"lon":2.3204218259346,"capacity":0,"station_opening_hours":null},{"station_id":210403080,"stationCode":"5110","name":"Lacépède - Monge","lat":48.84389286531899,"lon":2.3519663885235786,"capacity":0,"rental_methods":["CREDITCARD"],"station_opening_hours":null},{"station_id":210561800,"stationCode":"6108","name":"Saint-Romain - Cherche-Midi","lat":48.84708159081946,"lon":2.321374788880348,"capacity":0,"station_opening_hours":null},{"station_id":209063434,"stationCode":"33006","name":"André Karman - République","lat":48.91039875761846,"lon":2.3851355910301213,"capacity":0,"station_opening_hours":null},{"station_id":94555589,"stationCode":"42016","name":"Pierre et Marie Curie - Maurice Thorez","lat":48.81580226360801,"lon":2.376804985105991,"capacity":0,"station_opening_hours":null},{"station_id":19331959862,"stationCode":"40011","name":"Bas du Mont-Mesly","lat":48.779035118572,"lon":2.4609763908985,"capacity":0,"rental_methods":["CREDITCARD"],"station_opening_hours":null},{"station_id":43195240,"stationCode":"21010","name":"Silly - Galliéni","lat":48.835583838706,"lon":2.2325500845909,"capacity":0,"rental_methods":["CREDITCARD"],"station_opening_hours":null},{"station_id":501862076,"stationCode":"25006","name":"Place Nelson Mandela","lat":48.862453313908,"lon":2.1961666225454,"capacity":0,"rental_methods":["CREDITCARD"],"station_opening_hours":null},{"station_id":17486274358,"stationCode":"30002","name":"Jean Rostand - Paul Vaillant Couturier","lat":48.908168131015,"lon":2.4530601033354,"capacity":0,"rental_methods":["CREDITCARD"],"station_opening_hours":null},{"station_id":1057387136,"stationCode":"44010","name":"8 Mai 1945 - 10 Juillet 1940","lat":48.784567029674,"lon":2.3979035764933,"capacity":0,"rental_methods":["CREDITCARD"],"station_opening_hours":null},{"station_id":18795078746,"stationCode":"32304","name":"Charcot - Benfleet","lat":48.878370277021,"lon":2.440523876268,"capacity":0,"station_opening_hours":null},{"station_id":210566542,"stationCode":"7003","name":"Square Boucicaut","lat":48.851296433665276,"lon":2.325061820447445,"capacity":0,"rental_methods":["CREDITCARD"],"station_opening_hours":null},{"station_id":85043758,"stationCode":"17041","name":"Guersant - Gouvion-Saint-Cyr","lat":48.88287775178599,"lon":2.287667370814871,"capacity":0,"rental_methods":["CREDITCARD"],"station_opening_hours":null},{"station_id":210397939,"stationCode":"5016","name":"Thouin - Cardinal Lemoine","lat":48.84504716661511,"lon":2.3494647851273465,"capacity":0,"station_opening_hours":null},{"station_id":82405965,"stationCode":"11025","name":"Froment - Bréguet","lat":48.8570414504784,"lon":2.37289470306807,"capacity":0,"rental_methods":["CREDITCARD"],"station_opening_hours":null},{"station_id":213682736,"stationCode":"15047","name":"Morillons - Dantzig","lat":48.83310149953933,"lon":2.299380004405976,"capacity":0,"station_opening_hours":null},{"station_id":54000559,"stationCode":"17026","name":"Jouffroy d'Abbans - Wagram","lat":48.881973298352,"lon":2.301132157445,"capacity":0,"rental_methods":["CREDITCARD"],"station_opening_hours":null},{"station_id":210405211,"stationCode":"6021","name":"Beaux-Arts - Bonaparte","lat":48.856451985396,"lon":2.3348518833518,"capacity":0,"rental_methods":["CREDITCARD"],"station_opening_hours":null},{"station_id":16560752067,"stationCode":"15202","name":"Bracion - Périphérique","lat":48.826103771275,"lon":2.3004549373748,"capacity":0,"rental_methods":["CREDITCARD"],"station_opening_hours":null},{"station_id":37815204,"stationCode":"12109","name":"Mairie du 12ème","lat":48.840855311763,"lon":2.3875549435616,"capacity":0,"station_opening_hours":null},{"station_id":128986726,"stationCode":"8050","name":"Boétie - Ponthieu","lat":48.871417284355,"lon":2.3076787590981,"capacity":1,"rental_methods":["CREDITCARD"],"station_opening_hours":null},{"station_id":54000581,"stationCode":"13101","name":"Croulebarde - Corvisart","lat":48.830981659316855,"lon":2.3481646925210953,"capacity":2,"rental_methods":["CREDITCARD"],"station_opening_hours":null},{"station_id":13105968,"stationCode":"14108","name":"Le Brix et Mesmin - Jourdan","lat":48.82234096593411,"lon":2.327861653302471,"capacity":0,"station_opening_hours":null},{"station_id":653208733,"stationCode":"31024","name":"Romainville - Vaillant-Couturier","lat":48.86785,"lon":2.446748,"capacity":0,"station_opening_hours":null},{"station_id":54000536,"stationCode":"2022","name":"Saint-Fiacre - Poissonière","lat":48.870828911558,"lon":2.3459213599563,"capacity":5,"rental_methods":["CREDITCARD"],"station_opening_hours":null},{"station_id":129094535,"stationCode":"17044","name":"Porte de Saint-Ouen - Bessières","lat":48.89792240854517,"lon":2.32851451022192,"capacity":0,"station_opening_hours":null},{"station_id":54000612,"stationCode":"19033","name":"Cambrai - Benjamin Constant","lat":48.89594736851349,"lon":2.381133802246315,"capacity":1,"station_opening_hours":null},{"station_id":80101533,"stationCode":"17025","name":"Chazelles - Courcelles ","lat":48.879406604954,"lon":2.3034455627202988,"capacity":0,"rental_methods":["CREDITCARD"],"station_opening_hours":null},{"station_id":17486876370,"stationCode":"21326","name":"Moulin de Pierre - Abbé Grégoire","lat":48.822036188382,"lon":2.2754641655975,"capacity":0,"station_opening_hours":null},{"station_id":599135701,"stationCode":"20143","name":"Ramponeau - Belleville","lat":48.871031137596,"lon":2.379056852114,"capacity":0,"rental_methods":["CREDITCARD"],"station_opening_hours":null},{"station_id":102747146,"stationCode":"43002","name":"Lagny - Victor Basch","lat":48.84884147189881,"lon":2.426325418925233,"capacity":0,"rental_methods":["CREDITCARD"],"station_opening_hours":null},{"station_id":2515403527,"stationCode":"16138","name":"Saint-Cloud - Hippodrome","lat":48.85772148887421,"lon":2.2549109905958176,"capacity":0,"station_opening_hours":null},{"station_id":653132534,"stationCode":"21216","name":"Louis Lejeune - Barbès","lat":48.81807418981508,"lon":2.3267009854316716,"capacity":0,"station_opening_hours":null},{"station_id":506455295,"stationCode":"15068","name":"Général Martial Valin - Pont du Garigliano","lat":48.83823094269141,"lon":2.270506024360657,"capacity":0,"station_opening_hours":null},{"station_id":1057149522,"stationCode":"22207","name":"Rond-point du Dr Albert Schweitzer","lat":48.78980918988166,"lon":2.3143940046429634,"capacity":0,"station_opening_hours":null},{"station_id":653197324,"stationCode":"92002","name":"Théâtre des Amandiers - Palais des sports","lat":48.892648526839,"lon":2.2136941552162,"capacity":0,"station_opening_hours":null},{"station_id":42950839,"stationCode":"19027","name":"Serrurier","lat":48.880493403246,"lon":2.398064173758,"capacity":0,"station_opening_hours":null},{"station_id":14813797734,"stationCode":"31028","name":"Raspail Barbès","lat":48.8529945,"lon":2.4247387,"capacity":0,"rental_methods":["CREDITCARD"],"station_opening_hours":null},{"station_id":88230992,"stationCode":"17048","name":"De Toqueville - Terrasse","lat":48.882428,"lon":2.314002,"capacity":0,"rental_methods":["CREDITCARD"],"station_opening_hours":null},{"station_id":499303158,"stationCode":"44017","name":"Jules Guesde - Pont du Port à l'Anglais","lat":48.79628807093802,"lon":2.417212128639221,"capacity":0,"rental_methods":["CREDITCARD"],"station_opening_hours":null},{"station_id":27415302,"stationCode":"16118","name":"Michel-Ange - Parent de Rosan","lat":48.840579923690115,"lon":2.2584119439125065,"capacity":0,"station_opening_hours":null},{"station_id":27414512,"stationCode":"2017","name":"Caire - Dussoubs","lat":48.86785342111862,"lon":2.349364310503006,"capacity":0,"station_opening_hours":null},{"station_id":210580039,"stationCode":"9008","name":"Tour d'Auvergne - Rodier","lat":48.879161,"lon":2.343698,"capacity":0,"station_opening_hours":null},{"station_id":49474389,"stationCode":"8103","name":"Artois - Berri","lat":48.87393521240818,"lon":2.3064258322119713,"capacity":0,"station_opening_hours":null},{"station_id":128940135,"stationCode":"8048","name":"Marceau - Chaillot","lat":48.868834023334,"lon":2.2986030816809,"capacity":0,"station_opening_hours":null},{"station_id":35149611,"stationCode":"14013","name":"Liard - Amiral Mouchez","lat":48.8214169,"lon":2.342167,"capacity":0,"rental_methods":["CREDITCARD"],"station_opening_hours":null},{"station_id":1057296253,"stationCode":"13118","name":"Regnault - Patay","lat":48.82435782216384,"lon":2.377065159380436,"capacity":8,"station_opening_hours":null},{"station_id":576188379,"stationCode":"15112","name":"Vigée-Lebrun - Anselme Payen","lat":48.838683941628375,"lon":2.3110422492027287,"capacity":0,"station_opening_hours":null},{"station_id":2515085147,"stationCode":"13030","name":"Italie - Tolbiac","lat":48.82557229464416,"lon":2.3576171323657036,"capacity":0,"station_opening_hours":null},{"station_id":19331981332,"stationCode":"40016","name":"Sarrazins - Saussure","lat":48.769626617432,"lon":2.4717841148376,"capacity":0,"rental_methods":["CREDITCARD"],"station_opening_hours":null},{"station_id":129107656,"stationCode":"18111","name":"Félix Ziem - Armand Gauthier","lat":48.88949630486821,"lon":2.333393658804396,"capacity":0,"station_opening_hours":null},{"station_id":210574471,"stationCode":"9002","name":"Abbeville - Faubourg Poissonnière","lat":48.879223,"lon":2.349147,"capacity":0,"rental_methods":["CREDITCARD"],"station_opening_hours":null},{"station_id":1057228658,"stationCode":"48003","name":"Youri Gagarine - Karl Marx","lat":48.78448485079149,"lon":2.35908430069685,"capacity":0,"station_opening_hours":null},{"station_id":230873471,"stationCode":"16110","name":"Octave Feuillet - Albéric Magnard","lat":48.86106902949534,"lon":2.2730283066630363,"capacity":0,"station_opening_hours":null},{"station_id":129164969,"stationCode":"43009","name":"Place Jean-Spire-Lemaître","lat":48.8468428626593,"lon":2.452062070369721,"capacity":0,"rental_methods":["CREDITCARD"],"station_opening_hours":null},{"station_id":129004826,"stationCode":"9001","name":"Bellefond - Poissonnière","lat":48.87759897050706,"lon":2.348463758826256,"capacity":0,"rental_methods":["CREDITCARD"],"station_opening_hours":null},{"station_id":518825709,"stationCode":"17032","name":"Jean Oestreicher - Porte de Champerret","lat":48.88655580065981,"lon":2.288640439510346,"capacity":0,"station_opening_hours":null},{"station_id":128930462,"stationCode":"8016","name":"Square Louis XVI","lat":48.87320440102894,"lon":2.323658830743138,"capacity":0,"rental_methods":["CREDITCARD"],"station_opening_hours":null},{"station_id":54000565,"stationCode":"10115","name":"Granges aux Belles","lat":48.8761373390584,"lon":2.3680844979417,"capacity":5,"station_opening_hours":null},{"station_id":210586093,"stationCode":"10029","name":"Dunkerque - Rocroy","lat":48.880726,"lon":2.351464,"capacity":0,"station_opening_hours":null},{"station_id":369644630,"stationCode":"10161","name":"Gare de l'Est - Faubourg-Saint-Martin","lat":48.875642647477,"lon":2.3594588041306,"capacity":0,"rental_methods":["CREDITCARD"],"station_opening_hours":null},{"station_id":214114469,"stationCode":"41303","name":"Gare de Nogent-le-Perreux","lat":48.83842553348809,"lon":2.493693307042122,"capacity":0,"rental_methods":["CREDITCARD"],"station_opening_hours":null},{"station_id":55927887,"stationCode":"12031","name":"Gabriel Lamé","lat":48.8351212784276,"lon":2.385534569621086,"capacity":0,"rental_methods":["CREDITCARD"],"station_opening_hours":null},{"station_id":323616530,"stationCode":"1001","name":"Quai de l'Horloge - Pont Neuf","lat":48.857058739111,"lon":2.3417982839439,"capacity":0,"rental_methods":["CREDITCARD"],"station_opening_hours":null},{"station_id":72765603,"stationCode":"5022","name":"Boulangers - Cardinal Lemoine","lat":48.8462904,"lon":2.3521495,"capacity":0,"rental_methods":["CREDITCARD"],"station_opening_hours":null},{"station_id":16659953198,"stationCode":"21328","name":"Verger - Colonel Guichard","lat":48.816376985087,"lon":2.2670380088932,"capacity":0,"rental_methods":["CREDITCARD"],"station_opening_hours":null},{"station_id":35196898,"stationCode":"13104","name":"Gare d'Austerlitz - Quai Saint-Bernard","lat":48.84369030864,"lon":2.3657163977623,"capacity":0,"rental_methods":["CREDITCARD"],"station_opening_hours":null},{"station_id":43255030,"stationCode":"17040","name":"Pereire - Ternes","lat":48.87973954830735,"lon":2.288012132048607,"capacity":0,"rental_methods":["CREDITCARD"],"station_opening_hours":null},{"station_id":129025451,"stationCode":"9038","name":"Douai - Bruxelles","lat":48.88320784122797,"lon":2.3308449949028507,"capacity":0,"station_opening_hours":null},{"station_id":128920403,"stationCode":"8009","name":"Gare Saint-Lazare - Isly","lat":48.874777677621296,"lon":2.326515804784655,"capacity":0,"rental_methods":["CREDITCARD"],"station_opening_hours":null},{"station_id":1062192012,"stationCode":"31103","name":"Gare Rosny-Bois-Perrier","lat":48.88115023337061,"lon":2.480436824262142,"capacity":0,"rental_methods":["CREDITCARD"],"station_opening_hours":null},{"station_id":521393180,"stationCode":"17008","name":"Porte Pouchet-Bessières","lat":48.8978765,"lon":2.3230632,"capacity":0,"station_opening_hours":null},{"station_id":128887067,"stationCode":"7018","name":"Ségur - d'Estrées","lat":48.851419978983,"lon":2.3097044974566,"capacity":0,"station_opening_hours":null},{"station_id":102317064,"stationCode":"18203","name":"Lamarck - Saint-Ouen","lat":48.891334555236,"lon":2.3272445342326,"capacity":0,"rental_methods":["CREDITCARD"],"station_opening_hours":null},{"station_id":7254,"stationCode":"5005","name":"Gay Lussac - Saint-Jacques","lat":48.844730256132,"lon":2.3419239448664,"capacity":0,"station_opening_hours":null},{"station_id":17486828694,"stationCode":"21323","name":"Charlot - Stade Gabriel Voisin","lat":48.827228120536,"lon":2.268122527474,"capacity":0,"rental_methods":["CREDITCARD"],"station_opening_hours":null},{"station_id":128989986,"stationCode":"8053","name":"Place Georges Guillaumin","lat":48.874750203957,"lon":2.301771435326,"capacity":0,"station_opening_hours":null},{"station_id":39799329,"stationCode":"9014","name":"Faubourg Montmartre - La Fayette","lat":48.875254549053,"lon":2.3408536612988,"capacity":0,"rental_methods":["CREDITCARD"],"station_opening_hours":null},{"station_id":210582921,"stationCode":"9106","name":"Boudreau - Auber","lat":48.87219,"lon":2.329423,"capacity":0,"station_opening_hours":null},{"station_id":208795867,"stationCode":"19105","name":"Ambroise Rendu - Porte Brunet","lat":48.883667,"lon":2.395733,"capacity":0,"station_opening_hours":null},{"station_id":82567101,"stationCode":"31706","name":"Château - République","lat":48.862923800596,"lon":2.4155035614967,"capacity":0,"station_opening_hours":null},{"station_id":457813746,"stationCode":"22409","name":"Henri Barbusse - Stalingrad","lat":48.814183748660554,"lon":2.2872862592339516,"capacity":0,"rental_methods":["CREDITCARD"],"station_opening_hours":null},{"station_id":50191171,"stationCode":"19015","name":"Thionville - Ourcq","lat":48.88917613743794,"lon":2.3833653330802917,"capacity":0,"rental_methods":["CREDITCARD"],"station_opening_hours":null},{"station_id":129014600,"stationCode":"9022","name":"Rossini - Laffitte","lat":48.87334627510507,"lon":2.337980867701675,"capacity":0,"station_opening_hours":null},{"station_id":3906153622,"stationCode":"26003","name":"Argenteuil - Voltaire","lat":48.91864865955558,"lon":2.2814112156629562,"capacity":0,"station_opening_hours":null},{"station_id":129087587,"stationCode":"17004","name":"Legendre - Clichy","lat":48.88896161855884,"lon":2.322528975094376,"capacity":0,"rental_methods":["CREDITCARD"],"station_opening_hours":null},{"station_id":213693511,"stationCode":"19003","name":"Quai de la Seine","lat":48.884492238407525,"lon":2.3703941702842717,"capacity":0,"rental_methods":["CREDITCARD"],"station_opening_hours":null},{"station_id":66491397,"stationCode":"12151","name":"Gare de Lyon - Place Louis Armand","lat":48.845515089794,"lon":2.3726498446286,"capacity":0,"rental_methods":["CREDITCARD"],"station_opening_hours":null},{"station_id":128882438,"stationCode":"5020","name":"Institut du Monde Arabe - Saint-Germain","lat":48.849063299501,"lon":2.3558086529374,"capacity":0,"rental_methods":["CREDITCARD"],"station_opening_hours":null},{"station_id":2515995748,"stationCode":"92007","name":"Pesaro - Préfecture","lat":48.89577046284005,"lon":2.223908342421055,"capacity":0,"rental_methods":["CREDITCARD"],"station_opening_hours":null},{"station_id":27363162,"stationCode":"16026","name":"Ranelagh - Mozart","lat":48.8554439,"lon":2.2704418,"capacity":0,"rental_methods":["CREDITCARD"],"station_opening_hours":null},{"station_id":129021753,"stationCode":"9028","name":"Moncey - Blanche","lat":48.88006587474148,"lon":2.3310810327529907,"capacity":0,"station_opening_hours":null},{"station_id":210740080,"stationCode":"10107","name":"Gare du Nord - Hôpital Lariboisière","lat":48.881949,"lon":2.352339,"capacity":0,"station_opening_hours":null},{"station_id":3906094706,"stationCode":"26002","name":"Redoute - Les Courtilles","lat":48.929867194519,"lon":2.2836696356535,"capacity":0,"station_opening_hours":null},{"station_id":80216231,"stationCode":"17043","name":"Belidor - Gouvion-Saint-Cyr","lat":48.88022154052015,"lon":2.2854680567979813,"capacity":26,"rental_methods":["CREDITCARD"],"station_opening_hours":null},{"station_id":336511521,"stationCode":"19026","name":"Place de Rhin et Danube","lat":48.88192765861766,"lon":2.392586767673493,"capacity":0,"station_opening_hours":null},{"station_id":82562556,"stationCode":"16039","name":"Exelmans - Versailles","lat":48.84097491091973,"lon":2.264390252530575,"capacity":0,"rental_methods":["CREDITCARD"],"station_opening_hours":null},{"station_id":129048000,"stationCode":"11023","name":"Saint-Maur - Roquette","lat":48.858688774062955,"lon":2.383553994571467,"capacity":0,"rental_methods":["CREDITCARD"],"station_opening_hours":null},{"station_id":1062250686,"stationCode":"45003","name":"11 Novembre 1918 - 8 Mai 1945","lat":48.80889533774377,"lon":2.5382421165704727,"capacity":0,"station_opening_hours":null},{"station_id":129043651,"stationCode":"11002","name":"Roquette - Thiéré","lat":48.85507930579506,"lon":2.3733686318721463,"capacity":0,"rental_methods":["CREDITCARD"],"station_opening_hours":null},{"station_id":27363489,"stationCode":"12111","name":"Claude Decaen - Cannebière","lat":48.83761417037952,"lon":2.397253782195704,"capacity":0,"station_opening_hours":null},{"station_id":39296638,"stationCode":"8034","name":"Berri - Haussmann","lat":48.874746047357135,"lon":2.3082953318953514,"capacity":0,"station_opening_hours":null},{"station_id":813544903,"stationCode":"11047","name":"Amelot - Saint-Sébastien","lat":48.861142162761,"lon":2.3677996181077,"capacity":0,"station_opening_hours":null},{"station_id":205938683,"stationCode":"19043","name":"Delphine Seyrig - Général Leclerc","lat":48.893923963057865,"lon":2.39790290594101,"capacity":0,"station_opening_hours":null},{"station_id":210399835,"stationCode":"5032","name":"Panthéon - Valette","lat":48.847020571652,"lon":2.3464982619671,"capacity":0,"station_opening_hours":null},{"station_id":230877798,"stationCode":"18107","name":"Chartres - La Charbonnière","lat":48.8847601,"lon":2.3534657,"capacity":0,"station_opening_hours":null},{"station_id":102324803,"stationCode":"20042","name":"Pyrénées - Emmery","lat":48.872010281270974,"lon":2.392039597034455,"capacity":0,"station_opening_hours":null},{"station_id":101763163,"stationCode":"15067","name":"Desaix - Edgar Faure","lat":48.852804604940296,"lon":2.293077029857222,"capacity":0,"rental_methods":["CREDITCARD"],"station_opening_hours":null},{"station_id":126050442,"stationCode":"17030","name":"Pereire - Rennequin","lat":48.88364782887555,"lon":2.2952447086572647,"capacity":0,"rental_methods":["CREDITCARD"],"station_opening_hours":null},{"station_id":27414578,"stationCode":"6006","name":"Notre-Dame-des-Champs - Stanislas","lat":48.84479928858768,"lon":2.329337755887181,"capacity":0,"rental_methods":["CREDITCARD"],"station_opening_hours":null},{"station_id":54000569,"stationCode":"11027","name":"Saint-Ambroise - Parmentier","lat":48.862147844548,"lon":2.3772348091006,"capacity":0,"rental_methods":["CREDITCARD"],"station_opening_hours":null},{"station_id":508042092,"stationCode":"12128","name":"Pyramide - Ecole du Breuil ","lat":48.82237977153955,"lon":2.4586871266365056,"capacity":0,"station_opening_hours":null},{"station_id":42603855,"stationCode":"8010","name":"Liège - Moscou","lat":48.8795431,"lon":2.3264628,"capacity":0,"station_opening_hours":null},{"station_id":818302209,"stationCode":"31022","name":"Mairie de Montreuil","lat":48.86131452758348,"lon":2.440614402294159,"capacity":0,"rental_methods":["CREDITCARD"],"station_opening_hours":null},{"station_id":1057392676,"stationCode":"46002","name":"Rouget de Lisle","lat":48.764615483395254,"lon":2.4071189761161804,"capacity":0,"rental_methods":["CREDITCARD"],"station_opening_hours":null},{"station_id":129034587,"stationCode":"10016","name":"Récollets - Square Villemin","lat":48.875034655883944,"lon":2.359801238597928,"capacity":0,"station_opening_hours":null},{"station_id":261987383,"stationCode":"31009","name":"Place Du Général De Gaulle","lat":48.8687591,"lon":2.4329931,"capacity":0,"station_opening_hours":null},{"station_id":314829539,"stationCode":"41302","name":"Charles de Gaulle - Beauté","lat":48.83649602312711,"lon":2.479562651149885,"capacity":0,"station_opening_hours":null},{"station_id":1057324291,"stationCode":"14020","name":"Cimetière de Montrouge","lat":48.821466904768,"lon":2.3215785772007,"capacity":0,"station_opening_hours":null},{"station_id":583539396,"stationCode":"33017","name":"Anatole France - President Roosevelt","lat":48.9155156,"lon":2.3814103,"capacity":0,"rental_methods":["CREDITCARD"],"station_opening_hours":null},{"station_id":101753100,"stationCode":"15042","name":"Henry Farman","lat":48.83372430280548,"lon":2.2713854536414146,"capacity":0,"station_opening_hours":null},{"station_id":81081358,"stationCode":"18011","name":"Pajol - Place Herbert","lat":48.8927825,"lon":2.3635598,"capacity":0,"rental_methods":["CREDITCARD"],"station_opening_hours":null},{"station_id":209057581,"stationCode":"33102","name":"Gabriel Péri - Francisco Ferrer","lat":48.88633710236977,"lon":2.407338917255402,"capacity":0,"station_opening_hours":null},{"station_id":3906335682,"stationCode":"42706","name":"Roger Salengro - Fontainebleau","lat":48.814548697325,"lon":2.3611663654447,"capacity":0,"rental_methods":["CREDITCARD"],"station_opening_hours":null},{"station_id":586539770,"stationCode":"21212","name":"Marne - Germain Dardan","lat":48.81217465201,"lon":2.3035024699104,"capacity":0,"rental_methods":["CREDITCARD"],"station_opening_hours":null},{"station_id":597245295,"stationCode":"44006","name":"Concorde - Stalingrad","lat":48.7985844,"lon":2.3821302,"capacity":0,"rental_methods":["CREDITCARD"],"station_opening_hours":null},{"station_id":235513935,"stationCode":"19120","name":"Carducci - Place Hannah Arendt","lat":48.877436681515796,"lon":2.3860743641853337,"capacity":0,"station_opening_hours":null},{"station_id":102309973,"stationCode":"18003","name":"Cimetière de Montmartre","lat":48.886472466142,"lon":2.3328901827335,"capacity":0,"rental_methods":["CREDITCARD"],"station_opening_hours":null},{"station_id":532054446,"stationCode":"11113","name":"Richard Lenoir - Republique","lat":48.8667175,"lon":2.3692541,"capacity":0,"rental_methods":["CREDITCARD"],"station_opening_hours":null},{"station_id":535500589,"stationCode":"15104","name":"Hôpital Européen Georges Pompidou","lat":48.837695319163,"lon":2.2753742337227,"capacity":0,"station_opening_hours":null},{"station_id":265464297,"stationCode":"14003","name":"Schoelcher - Raspail","lat":48.83681733526843,"lon":2.3312794080411474,"capacity":0,"rental_methods":["CREDITCARD"],"station_opening_hours":null},{"station_id":66491385,"stationCode":"43008","name":"Fontenay - Libération","lat":48.847803063647,"lon":2.4451419711113,"capacity":0,"station_opening_hours":null},{"station_id":37815993,"stationCode":"5018","name":"Mutualité","lat":48.848225572724,"lon":2.3502873256803,"capacity":2,"rental_methods":["CREDITCARD"],"station_opening_hours":null},{"station_id":13718041,"stationCode":"19101","name":"Square Simon Bolivar","lat":48.875089888322,"lon":2.3826304078102,"capacity":3,"station_opening_hours":null},{"station_id":98187918,"stationCode":"4016","name":"Lobau - Hôtel de Ville","lat":48.8562118,"lon":2.3532536,"capacity":0,"rental_methods":["CREDITCARD"],"station_opening_hours":null},{"station_id":828134511,"stationCode":"14138","name":"Porte de Vanves","lat":48.828012849445,"lon":2.3056878894567,"capacity":0,"station_opening_hours":null},{"station_id":129060764,"stationCode":"12114","name":"Victor Hugo - Jeanne Jugan","lat":48.843949064031825,"lon":2.415081394834419,"capacity":0,"station_opening_hours":null},{"station_id":586649404,"stationCode":"46003","name":"Conservatoire de Musique","lat":48.77093586667601,"lon":2.4034014344215398,"capacity":0,"station_opening_hours":null},{"station_id":596813170,"stationCode":"41209","name":"Cimetière de Fontenay-sous-Bois","lat":48.84706173362218,"lon":2.4787822365760808,"capacity":0,"station_opening_hours":null},{"station_id":596872103,"stationCode":"21312","name":"Lucie Aubrac - Fort","lat":48.818144834008976,"lon":2.271184623241425,"capacity":0,"rental_methods":["CREDITCARD"],"station_opening_hours":null},{"station_id":129067920,"stationCode":"14008","name":"Mouton Duvernet - Général Leclerc","lat":48.831632518293,"lon":2.3293121159077,"capacity":0,"rental_methods":["CREDITCARD"],"station_opening_hours":null},{"station_id":210749865,"stationCode":"13001","name":"Port-Royal - Hôpital du Val-de-Grâce","lat":48.837668272811,"lon":2.3448138346607,"capacity":0,"rental_methods":["CREDITCARD"],"station_opening_hours":null},{"station_id":76199461,"stationCode":"18028","name":"Championnet - Vauvenargues","lat":48.89401874744574,"lon":2.3319872841238976,"capacity":0,"rental_methods":["CREDITCARD"],"station_opening_hours":null},{"station_id":588452142,"stationCode":"35010","name":"Hoche - Jean Lolive","lat":48.891102392008,"lon":2.4028435349464,"capacity":0,"rental_methods":["CREDITCARD"],"station_opening_hours":null},{"station_id":88140066,"stationCode":"8017","name":"Rocher - Laborde","lat":48.87590240712654,"lon":2.322616316378116,"capacity":0,"rental_methods":["CREDITCARD"],"station_opening_hours":null},{"station_id":213683101,"stationCode":"15054","name":"Lecourbe - Jean Maridor","lat":48.83796366147599,"lon":2.2877392172813416,"capacity":0,"station_opening_hours":null},{"station_id":213684750,"stationCode":"15106","name":"Grenelle - Violet","lat":48.84993035512154,"lon":2.294612042605877,"capacity":0,"rental_methods":["CREDITCARD"],"station_opening_hours":null},{"station_id":2515049357,"stationCode":"5124","name":"Erasme - Ulm","lat":48.84264375274712,"lon":2.3445946723222733,"capacity":0,"station_opening_hours":null},{"station_id":27364743,"stationCode":"14106","name":"Marc Sangnier - Porte de Vanves","lat":48.825218683556734,"lon":2.3107116669416428,"capacity":0,"station_opening_hours":null},{"station_id":102314792,"stationCode":"18046","name":"Etienne Jodelle - Saint Ouen","lat":48.88794016394694,"lon":2.326124420314341,"capacity":0,"station_opening_hours":null},{"station_id":35447568,"stationCode":"22406","name":"Guy Môquet - Etienne Dolet","lat":48.81527009991819,"lon":2.298078276995073,"capacity":0,"station_opening_hours":null},{"station_id":583178525,"stationCode":"31102","name":"Boissière - Etienne Dolet","lat":48.876111,"lon":2.4677312,"capacity":0,"station_opening_hours":null},{"station_id":2514995690,"stationCode":"2111","name":"Chabanais - Petits Champs","lat":48.86703740186721,"lon":2.336716018617153,"capacity":0,"station_opening_hours":null},{"station_id":66491402,"stationCode":"18022","name":"Marcadet - Barbès","lat":48.890451120965,"lon":2.3490573929687,"capacity":0,"rental_methods":["CREDITCARD"],"station_opening_hours":null},{"station_id":82387816,"stationCode":"8054","name":"Bertie Albrecht - Hoche","lat":48.87614039826388,"lon":2.301303138307601,"capacity":0,"rental_methods":["CREDITCARD"],"station_opening_hours":null},{"station_id":213685090,"stationCode":"15109","name":"Cevennes - Bergers","lat":48.84240765130395,"lon":2.281037718057633,"capacity":0,"rental_methods":["CREDITCARD"],"station_opening_hours":null},{"station_id":301841024,"stationCode":"21209","name":"Molière - République","lat":48.81111581390707,"lon":2.3145738624448158,"capacity":0,"station_opening_hours":null},{"station_id":213679512,"stationCode":"14012","name":"Sibelle - Alésia","lat":48.826701758539215,"lon":2.3384983465075493,"capacity":0,"station_opening_hours":null},{"station_id":85147829,"stationCode":"21005","name":"Hôtel de Ville de Boulogne Billancourt","lat":48.83495885166784,"lon":2.2416803240776066,"capacity":0,"rental_methods":["CREDITCARD"],"station_opening_hours":null},{"station_id":129038848,"stationCode":"10042","name":"Enghien - Faubourg Poissonnière","lat":48.872420063053,"lon":2.3483952362828,"capacity":0,"station_opening_hours":null},{"station_id":17581042048,"stationCode":"17203","name":"Place de la Porte de Champeret","lat":48.886062068226,"lon":2.2917001576821,"capacity":0,"rental_methods":["CREDITCARD"],"station_opening_hours":null},{"station_id":230952057,"stationCode":"42014","name":"Place Marcel Cachin","lat":48.81411442356866,"lon":2.39090770483017,"capacity":0,"rental_methods":["CREDITCARD"],"station_opening_hours":null},{"station_id":102323152,"stationCode":"19103","name":"Manin - Carrières d'Amérique","lat":48.884672142095,"lon":2.3919698596001,"capacity":0,"station_opening_hours":null},{"station_id":66491389,"stationCode":"8045","name":"Place de la Reine Astrid","lat":48.864920982538,"lon":2.3025491823859,"capacity":0,"rental_methods":["CREDITCARD"],"station_opening_hours":null},{"station_id":213681356,"stationCode":"14124","name":"David Weill - Parc Montsouris","lat":48.821092374256104,"lon":2.333725690841675,"capacity":0,"rental_methods":["CREDITCARD"],"station_opening_hours":null},{"station_id":2515351285,"stationCode":"15133","name":"Saint Lambert - Blomet","lat":48.83659148147257,"lon":2.2930556908249855,"capacity":0,"station_opening_hours":null},{"station_id":213685514,"stationCode":"15110","name":"Place Robert Guillemard","lat":48.836191728066666,"lon":2.2811267160086417,"capacity":0,"station_opening_hours":null},{"station_id":102329800,"stationCode":"21006","name":"Marcelin Berthelot","lat":48.8415473058801,"lon":2.233161628246308,"capacity":0,"station_opening_hours":null},{"station_id":572566600,"stationCode":"44013","name":"Edouard Tremblay - Julian Grimaux","lat":48.781383825117,"lon":2.3723508417606,"capacity":0,"station_opening_hours":null},{"station_id":54000625,"stationCode":"20131","name":"Repos - Cimetière du Père Lachaise","lat":48.859358523593,"lon":2.3896131366845,"capacity":0,"rental_methods":["CREDITCARD"],"station_opening_hours":null},{"station_id":19495456684,"stationCode":"16202","name":"Commandant Schloesing - Pétrarque","lat":48.861773096259,"lon":2.2838841134601,"capacity":1,"rental_methods":["CREDITCARD"],"station_opening_hours":null},{"station_id":129132870,"stationCode":"21015","name":"Nationale - Place Jules Guesde","lat":48.82753962462998,"lon":2.2416052222251897,"capacity":0,"station_opening_hours":null},{"station_id":620403530,"stationCode":"44003","name":"Gabriel Péri - Danielle Casanova","lat":48.790114,"lon":2.4025777,"capacity":0,"rental_methods":["CREDITCARD"],"station_opening_hours":null},{"station_id":66491378,"stationCode":"15034","name":"Lakanal - Commerce","lat":48.84442462786544,"lon":2.294059172272682,"capacity":0,"rental_methods":["CREDITCARD"],"station_opening_hours":null},{"station_id":41610121,"stationCode":"5028","name":"Censier - Jardin des Plantes","lat":48.84107178161383,"lon":2.355475388467312,"capacity":0,"rental_methods":["CREDITCARD"],"station_opening_hours":null},{"station_id":1765749389,"stationCode":"48010","name":"Karl Marx","lat":48.784527937293184,"lon":2.3646667979455587,"capacity":0,"rental_methods":["CREDITCARD"],"station_opening_hours":null},{"station_id":611152693,"stationCode":"22203","name":"Tertres - Fontaine","lat":48.787553654715644,"lon":2.306235730648041,"capacity":0,"station_opening_hours":null},{"station_id":235241110,"stationCode":"41202","name":"Gare Rer de Fontenay sous Bois","lat":48.8436279,"lon":2.4630465,"capacity":0,"rental_methods":["CREDITCARD"],"station_opening_hours":null},{"station_id":613737748,"stationCode":"42021","name":"Raspail - Manufacture des Oeillets","lat":48.8094458,"lon":2.3903009,"capacity":0,"rental_methods":["CREDITCARD"],"station_opening_hours":null},{"station_id":1062671597,"stationCode":"1119","name":"Cossonnerie - Sébastopol","lat":48.86132665908402,"lon":2.349419631063938,"capacity":0,"station_opening_hours":null},{"station_id":463297497,"stationCode":"35020","name":"Marcelle - Thalie","lat":48.8835462,"lon":2.4137883,"capacity":0,"rental_methods":["CREDITCARD"],"station_opening_hours":null},{"station_id":128841079,"stationCode":"1020","name":"Cambon - Rivoli","lat":48.866143390992,"lon":2.3251800647137,"capacity":0,"rental_methods":["CREDITCARD"],"station_opening_hours":null},{"station_id":213875650,"stationCode":"25003","name":"Henri Ste-Claire Déville - Paul Héroult","lat":48.892663,"lon":2.172411,"capacity":0,"station_opening_hours":null},{"station_id":245187072,"stationCode":"20115","name":"Louis Lumière - Porte de Bagnolet","lat":48.86431136000005,"lon":2.4105210229754443,"capacity":0,"station_opening_hours":null},{"station_id":129144878,"stationCode":"31003","name":"Paris - Emile Zola","lat":48.854898095789295,"lon":2.4186685681343083,"capacity":0,"rental_methods":["CREDITCARD"],"station_opening_hours":null},{"station_id":27415665,"stationCode":"22402","name":"Jean Jaurès - Salvador Allende","lat":48.821475594736775,"lon":2.3026576638221745,"capacity":0,"station_opening_hours":null},{"station_id":593238093,"stationCode":"9116","name":"Victoire - Chaussée d'Antin","lat":48.875065791004396,"lon":2.3316738009452824,"capacity":0,"rental_methods":["CREDITCARD"],"station_opening_hours":null},{"station_id":13356269,"stationCode":"6025","name":"Assas - Rennes","lat":48.8492084999386,"lon":2.32851454623001,"capacity":4,"station_opening_hours":null},{"station_id":41498023,"stationCode":"11030","name":"Oberkampf - République","lat":48.86531608707,"lon":2.37611478491,"capacity":0,"rental_methods":["CREDITCARD"],"station_opening_hours":null},{"station_id":37791,"stationCode":"11039","name":"Richard Lenoir - Jean-Pierre Timbaud","lat":48.865804276686,"lon":2.3693370749669,"capacity":0,"rental_methods":["CREDITCARD"],"station_opening_hours":null},{"station_id":50156117,"stationCode":"17013","name":"Legendre - Dulong","lat":48.885325169402904,"lon":2.316423766314984,"capacity":0,"rental_methods":["CREDITCARD"],"station_opening_hours":null},{"station_id":210744286,"stationCode":"11026","name":"Chemin Vert - Saint-Maur","lat":48.86112461407359,"lon":2.381299026310444,"capacity":0,"rental_methods":["CREDITCARD"],"station_opening_hours":null},{"station_id":213992316,"stationCode":"32604","name":"Square du Théâtre du Garde-Chasse","lat":48.881287375060616,"lon":2.420119643211365,"capacity":0,"station_opening_hours":null},{"station_id":213694482,"stationCode":"19024","name":"Botzaris - Parc des Buttes Chaumont","lat":48.877951,"lon":2.381464,"capacity":0,"station_opening_hours":null},{"station_id":235599121,"stationCode":"41601","name":"Général De Gaulle - Alouette","lat":48.839109,"lon":2.4175664,"capacity":0,"rental_methods":["CREDITCARD"],"station_opening_hours":null},{"station_id":462875227,"stationCode":"23006","name":"Jules Guesde - Alsace","lat":48.890566275506,"lon":2.2950777411461,"capacity":0,"station_opening_hours":null},{"station_id":101743895,"stationCode":"15021","name":"Joseph Liouville - Croix Nivert","lat":48.844835471244416,"lon":2.297508493065834,"capacity":0,"rental_methods":["CREDITCARD"],"station_opening_hours":null},{"station_id":213691848,"stationCode":"17105","name":"Place Madeleine Daniélou","lat":48.883498,"lon":2.282015,"capacity":0,"station_opening_hours":null},{"station_id":129011497,"stationCode":"9010","name":"Rochechouart lamartine","lat":48.876719895109,"lon":2.344393021854,"capacity":0,"rental_methods":["CREDITCARD"],"station_opening_hours":null},{"station_id":54000601,"stationCode":"18009","name":"Jean-François Lépine - Stephenson","lat":48.88611466796807,"lon":2.356855627529275,"capacity":0,"rental_methods":["CREDITCARD"],"station_opening_hours":null},{"station_id":97677210,"stationCode":"11105","name":"Parmentier - République","lat":48.8644954,"lon":2.3750124,"capacity":0,"rental_methods":["CREDITCARD"],"station_opening_hours":null},{"station_id":213688462,"stationCode":"16108","name":"Sablons - Georges Mandel","lat":48.863875,"lon":2.28189,"capacity":0,"station_opening_hours":null},{"station_id":1057774603,"stationCode":"17125","name":"Marie-Georges Picquart - Pereire","lat":48.88863669349711,"lon":2.3111706599593163,"capacity":0,"station_opening_hours":null},{"station_id":102749572,"stationCode":"43005","name":"Gare RER de Vincennes","lat":48.847563015126106,"lon":2.433383166790009,"capacity":0,"station_opening_hours":null},{"station_id":390212609,"stationCode":"16136","name":"Théophile Gautier - François Millet","lat":48.85034821320644,"lon":2.273029983043671,"capacity":0,"station_opening_hours":null},{"station_id":549876068,"stationCode":"19032","name":"Villette - Belleville","lat":48.8726877314,"lon":2.376461327076,"capacity":0,"rental_methods":["CREDITCARD"],"station_opening_hours":null},{"station_id":63498079,"stationCode":"19022","name":"Marché Secrétan","lat":48.88125496379482,"lon":2.373463287949562,"capacity":0,"rental_methods":["CREDITCARD"],"station_opening_hours":null},{"station_id":102338493,"stationCode":"21701","name":"Larmeroux - Baudelaire","lat":48.816939911292,"lon":2.2809894804846,"capacity":0,"station_opening_hours":null},{"station_id":15462236,"stationCode":"16008","name":"Galilée - Kléber","lat":48.867411865714,"lon":2.2907813801148,"capacity":0,"rental_methods":["CREDITCARD"],"station_opening_hours":null},{"station_id":27362896,"stationCode":"22003","name":"Beffroy","lat":48.886591074488,"lon":2.2613945603371,"capacity":0,"rental_methods":["CREDITCARD"],"station_opening_hours":null},{"station_id":39254792,"stationCode":"11024","name":"Mairie du 11ème","lat":48.858925,"lon":2.3789759,"capacity":0,"rental_methods":["CREDITCARD"],"station_opening_hours":null},{"station_id":101024234,"stationCode":"13050","name":"Quai Panhard et Levassor","lat":48.828374828097,"lon":2.3842737458056,"capacity":0,"rental_methods":["CREDITCARD"],"station_opening_hours":null},{"station_id":213687140,"stationCode":"16038","name":"Molitor - Chardon-Lagache","lat":48.845208801832,"lon":2.2656840831041,"capacity":0,"rental_methods":["CREDITCARD"],"station_opening_hours":null},{"station_id":102331767,"stationCode":"21008","name":"Victor Hugo - Galliéni","lat":48.838020154411,"lon":2.2460845112801,"capacity":0,"rental_methods":["CREDITCARD"],"station_opening_hours":null},{"station_id":875078767,"stationCode":"20134","name":"Lieutenant Chauré - Etienne Marey","lat":48.86746195408435,"lon":2.405970990657807,"capacity":0,"rental_methods":["CREDITCARD"],"station_opening_hours":null},{"station_id":1558958733,"stationCode":"24001","name":"Arche - Léonard de Vinci","lat":48.89790972494496,"lon":2.2383723043644914,"capacity":0,"rental_methods":["CREDITCARD"],"station_opening_hours":null},{"station_id":2515802454,"stationCode":"22016","name":"Charles de Gaulle - Sablonville","lat":48.87991924860035,"lon":2.2763770446181297,"capacity":0,"station_opening_hours":null},{"station_id":648227675,"stationCode":"14136","name":"Auguste Cain - Jean Moulin","lat":48.82577028927573,"lon":2.3210415244102482,"capacity":0,"station_opening_hours":null},{"station_id":1062206433,"stationCode":"32302","name":"Chemin Vert - Fraternité","lat":48.877141208359035,"lon":2.4461565166711807,"capacity":0,"station_opening_hours":null},{"station_id":129032910,"stationCode":"10014","name":"Marseille - Beaurepaire","lat":48.871624306962985,"lon":2.3639265082738348,"capacity":0,"station_opening_hours":null},{"station_id":54001024,"stationCode":"11035","name":"Parmentier - Abel Rabaud","lat":48.86921273836114,"lon":2.371688821240712,"capacity":0,"rental_methods":["CREDITCARD"],"station_opening_hours":null},{"station_id":94250567,"stationCode":"42010","name":"Mairie d'Ivry-sur-Seine","lat":48.81057120969284,"lon":2.3842826485633855,"capacity":0,"station_opening_hours":null},{"station_id":129078200,"stationCode":"15046","name":"Parc Georges Brassens - Brancion","lat":48.83227829269761,"lon":2.3022570088505745,"capacity":3,"rental_methods":["CREDITCARD"],"station_opening_hours":null},{"station_id":649888071,"stationCode":"46001","name":"Place Paul Eluard","lat":48.7672039733195,"lon":2.4144977331161503,"capacity":0,"rental_methods":["CREDITCARD"],"station_opening_hours":null},{"station_id":82563707,"stationCode":"16040","name":"Exelmans - Michel-Ange","lat":48.84309486651855,"lon":2.2597770800669053,"capacity":0,"rental_methods":["CREDITCARD"],"station_opening_hours":null},{"station_id":129143598,"stationCode":"22006","name":"Pierret - Madrid","lat":48.882976576876565,"lon":2.260125767248034,"capacity":0,"rental_methods":["CREDITCARD"],"station_opening_hours":null},{"station_id":213690847,"stationCode":"17028","name":"Reims - Raymond Pitet","lat":48.8888,"lon":2.296319,"capacity":0,"station_opening_hours":null},{"station_id":102333275,"stationCode":"21301","name":"Saint-Vincent - Verdun","lat":48.819211549234495,"lon":2.254007756710053,"capacity":0,"station_opening_hours":null},{"station_id":640629438,"stationCode":"42302","name":"Aristide Briand - Gare de Bagneux","lat":48.79387269664978,"lon":2.321148812770844,"capacity":0,"rental_methods":["CREDITCARD"],"station_opening_hours":null},{"station_id":27363362,"stationCode":"19029","name":"Seine - Flandre","lat":48.886785741479684,"lon":2.3746193200349808,"capacity":0,"rental_methods":["CREDITCARD"],"station_opening_hours":null},{"station_id":237624030,"stationCode":"9032","name":"Mathurins - Auber","lat":48.872988840744,"lon":2.3294984212276,"capacity":0,"rental_methods":["CREDITCARD"],"station_opening_hours":null},{"station_id":6399,"stationCode":"19016","name":"Hautpoul - Jean Jaurès","lat":48.886393679436,"lon":2.3865414544355,"capacity":0,"rental_methods":["CREDITCARD"],"station_opening_hours":null},{"station_id":213957917,"stationCode":"32003","name":"Wilson - Métallurgie","lat":48.909423010092326,"lon":2.3584435880184174,"capacity":0,"station_opening_hours":null},{"station_id":54000626,"stationCode":"21104","name":"Madame de Sanzillon - Mozart","lat":48.90379820774301,"lon":2.3187401890754704,"capacity":0,"rental_methods":["CREDITCARD"],"station_opening_hours":null},{"station_id":210746090,"stationCode":"11042","name":"Grand Prieuré - Crussol","lat":48.864660627935,"lon":2.3692265531829,"capacity":1,"station_opening_hours":null},{"station_id":18880379814,"stationCode":"32026","name":"Leroy des Barres - Médiathèque","lat":48.928253687082,"lon":2.3681719727966,"capacity":0,"rental_methods":["CREDITCARD"],"station_opening_hours":null},{"station_id":27414841,"stationCode":"9005","name":"Square d'Anvers","lat":48.882633484311,"lon":2.3448844062122,"capacity":0,"rental_methods":["CREDITCARD"],"station_opening_hours":null},{"station_id":53999465,"stationCode":"1013","name":"Place du Palais Royal","lat":48.862382970647,"lon":2.3384822532535,"capacity":0,"rental_methods":["CREDITCARD"],"station_opening_hours":null},{"station_id":42566291,"stationCode":"8025","name":"Miromesnil - La Boétie","lat":48.873722412917,"lon":2.3158480972052,"capacity":0,"rental_methods":["CREDITCARD"],"station_opening_hours":null},{"station_id":82253759,"stationCode":"7102","name":"Mairie du 7ème","lat":48.8577967,"lon":2.3192664,"capacity":0,"station_opening_hours":null},{"station_id":54000577,"stationCode":"13002","name":"Arago - Glacière","lat":48.83486054775774,"lon":2.3445770524322067,"capacity":0,"rental_methods":["CREDITCARD"],"station_opening_hours":null},{"station_id":19495480499,"stationCode":"12204","name":"Prague - Théophile Roussel","lat":48.850330563516,"lon":2.3758223011125,"capacity":1,"rental_methods":["CREDITCARD"],"station_opening_hours":null},{"station_id":213702608,"stationCode":"20121","name":"Boyer - Ménilmontant","lat":48.868895162679,"lon":2.3919824145635,"capacity":0,"station_opening_hours":null},{"station_id":54000609,"stationCode":"19013","name":"Laumière - Petit","lat":48.88467368538326,"lon":2.380039058625698,"capacity":0,"rental_methods":["CREDITCARD"],"station_opening_hours":null},{"station_id":214134714,"stationCode":"42301","name":"Gare Arcueil - Cachan","lat":48.799824,"lon":2.328171,"capacity":0,"rental_methods":["CREDITCARD"],"station_opening_hours":null},{"station_id":362869414,"stationCode":"43003","name":"Hôpital Bégin","lat":48.84571672113,"lon":2.4272462725639,"capacity":0,"rental_methods":["CREDITCARD"],"station_opening_hours":null},{"station_id":214139374,"stationCode":"42504","name":"Gare RER de Gentilly","lat":48.814280450380224,"lon":2.3410347104072575,"capacity":0,"station_opening_hours":null},{"station_id":17174681330,"stationCode":"26013","name":"Quai du docteur Dervaux","lat":48.910482,"lon":2.297998,"capacity":0,"rental_methods":["CREDITCARD"],"station_opening_hours":null},{"station_id":213700358,"stationCode":"20111","name":"Villiers de l'Isle Adam - Pyrénées","lat":48.867362,"lon":2.396222,"capacity":0,"station_opening_hours":null},{"station_id":66491405,"stationCode":"20043","name":"Charonne - Avron","lat":48.851602665222,"lon":2.3984030470379,"capacity":0,"rental_methods":["CREDITCARD"],"station_opening_hours":null},{"station_id":559507144,"stationCode":"42015","name":"Place Jean Ferrat","lat":48.8184945213025,"lon":2.3744174838066106,"capacity":0,"station_opening_hours":null},{"station_id":653063170,"stationCode":"32016","name":"Place de la Porte de Paris","lat":48.93009363207303,"lon":2.3564037680625916,"capacity":0,"rental_methods":["CREDITCARD"],"station_opening_hours":null},{"station_id":3906215030,"stationCode":"15201","name":"Place Amédée Gordini - Lefebvre","lat":48.83061737745,"lon":2.2920634208276,"capacity":0,"station_opening_hours":null},{"station_id":129151834,"stationCode":"31010","name":"Stalingrad - Désiré Chevalier","lat":48.85670169739857,"lon":2.445072233676911,"capacity":0,"station_opening_hours":null},{"station_id":213694069,"stationCode":"19008","name":"Flandre - Alphonse Karr","lat":48.89465,"lon":2.381868,"capacity":0,"rental_methods":["CREDITCARD"],"station_opening_hours":null},{"station_id":55664548,"stationCode":"11004","name":"Charonne - Faubourg Saint-Antoine","lat":48.852191909696,"lon":2.3740932717919,"capacity":2,"rental_methods":["CREDITCARD"],"station_opening_hours":null},{"station_id":4329844165,"stationCode":"18201","name":"Tristan Tzara -  Tchaïkovski","lat":48.89490221746837,"lon":2.3648490384221077,"capacity":0,"station_opening_hours":null},{"station_id":653200142,"stationCode":"92008","name":"Hôtel de Ville de Nanterre","lat":48.892371898250424,"lon":2.205548956990242,"capacity":0,"rental_methods":["CREDITCARD"],"station_opening_hours":null},{"station_id":650091839,"stationCode":"41402","name":"Victor Hugo - Ecoles","lat":48.80476007936134,"lon":2.4180373930262093,"capacity":0,"rental_methods":["CREDITCARD"],"station_opening_hours":null},{"station_id":18660653445,"stationCode":"51004","name":"Général Delambre - Prebuard","lat":48.93870344444,"lon":2.2234171606307,"capacity":0,"station_opening_hours":null},{"station_id":42743053,"stationCode":"18012","name":"Stephenson - Doudeauville","lat":48.888537048944826,"lon":2.3561610281467438,"capacity":2,"rental_methods":["CREDITCARD"],"station_opening_hours":null},{"station_id":49859500,"stationCode":"12009","name":"Charenton - Diderot","lat":48.846171461187,"lon":2.3793068155646,"capacity":0,"rental_methods":["CREDITCARD"],"station_opening_hours":null},{"station_id":213699913,"stationCode":"19125","name":"Place de l'Édit de Nantes","lat":48.88879,"lon":2.3785,"capacity":0,"rental_methods":["CREDITCARD"],"station_opening_hours":null},{"station_id":101740379,"stationCode":"14036","name":"Boulard - Daguerre","lat":48.83446472680611,"lon":2.3293386027216907,"capacity":0,"rental_methods":["CREDITCARD"],"station_opening_hours":null},{"station_id":19006016846,"stationCode":"19205","name":"Simon Bolivar - Henri Turot","lat":48.877475489801,"lon":2.3739709492211,"capacity":0,"station_opening_hours":null},{"station_id":647826568,"stationCode":"5123","name":"Saint-Germain - Thenard","lat":48.850571,"lon":2.3471015,"capacity":0,"rental_methods":["CREDITCARD"],"station_opening_hours":null},{"station_id":49368561,"stationCode":"11036","name":"Jules Ferry - Faubourg du Temple Paris","lat":48.868397,"lon":2.3678933,"capacity":0,"rental_methods":["CREDITCARD"],"station_opening_hours":null},{"station_id":468843711,"stationCode":"9021","name":"Saint Georges - d'Aumale","lat":48.87778639599673,"lon":2.337429821491241,"capacity":0,"rental_methods":["CREDITCARD"],"station_opening_hours":null},{"station_id":378626842,"stationCode":"23009","name":"Anatole France - Louise Michel","lat":48.88873214926474,"lon":2.2881576418876652,"capacity":0,"rental_methods":["CREDITCARD"],"station_opening_hours":null},{"station_id":27414945,"stationCode":"12027","name":"Montgallet - Charenton","lat":48.842647778701,"lon":2.3861649278137,"capacity":0,"rental_methods":["CREDITCARD"],"station_opening_hours":null},{"station_id":2515927759,"stationCode":"42029","name":"Stalingrad - Germaine Tailleferre","lat":48.80257200481316,"lon":2.3786691203713417,"capacity":0,"rental_methods":["CREDITCARD"],"station_opening_hours":null},{"station_id":205955605,"stationCode":"8035","name":"Bienfaisance - Place de Narvik","lat":48.87660163459077,"lon":2.3129771277308464,"capacity":0,"station_opening_hours":null},{"station_id":933214552,"stationCode":"21313","name":"Guynemer - Séverine","lat":48.83091743371036,"lon":2.2790706530213356,"capacity":0,"rental_methods":["CREDITCARD"],"station_opening_hours":null},{"station_id":39217683,"stationCode":"17102","name":"Alfred Roll - Berthier","lat":48.887808570529,"lon":2.3000952981763,"capacity":1,"station_opening_hours":null},{"station_id":353462947,"stationCode":"28001","name":"Richard Wallace - Place du 8 Mai 1945","lat":48.87866794788021,"lon":2.2420343756675725,"capacity":0,"rental_methods":["CREDITCARD"],"station_opening_hours":null},{"station_id":1559700274,"stationCode":"26007","name":"Square Gilbert Thomain","lat":48.90717373809284,"lon":2.2695400938391685,"capacity":0,"station_opening_hours":null},{"station_id":213688824,"stationCode":"16111","name":"Faustin Hélie - Desbordes-Valmore","lat":48.859403,"lon":2.276522,"capacity":0,"station_opening_hours":null},{"station_id":210090269,"stationCode":"11007","name":"Jean Macé - Faidherbe","lat":48.85337548426,"lon":2.3828620836139,"capacity":0,"rental_methods":["CREDITCARD"],"station_opening_hours":null},{"station_id":66491393,"stationCode":"15025","name":"Dupleix - du Guesclin","lat":48.85147910413369,"lon":2.296709530055523,"capacity":0,"rental_methods":["CREDITCARD"],"station_opening_hours":null},{"station_id":1062223873,"stationCode":"35018","name":"Ancien Canal - Hélène Brion","lat":48.89484799296163,"lon":2.4188338592648506,"capacity":0,"rental_methods":["CREDITCARD"],"station_opening_hours":null},{"station_id":49085250,"stationCode":"18110","name":"Departement - Pajol","lat":48.886674849730184,"lon":2.3613611608743668,"capacity":0,"station_opening_hours":null},{"station_id":66491404,"stationCode":"19005","name":"Flandre - Riquet","lat":48.888013281448,"lon":2.3737595955229,"capacity":0,"rental_methods":["CREDITCARD"],"station_opening_hours":null},{"station_id":66491392,"stationCode":"10113","name":"Parmentier - Hôpital Saint-Louis","lat":48.871379874257,"lon":2.3698963836667,"capacity":0,"rental_methods":["CREDITCARD"],"station_opening_hours":null},{"station_id":2515907297,"stationCode":"41606","name":"Pasteur - Gambetta","lat":48.84572797384512,"lon":2.4236011505126953,"capacity":0,"rental_methods":["CREDITCARD"],"station_opening_hours":null},{"station_id":66491401,"stationCode":"17011","name":"Fragonard - Porte de Clichy","lat":48.894155633419,"lon":2.3143893107772,"capacity":0,"station_opening_hours":null},{"station_id":341388492,"stationCode":"17045","name":"Place des Ternes.","lat":48.878438631226516,"lon":2.297727763652802,"capacity":0,"rental_methods":["CREDITCARD"],"station_opening_hours":null},{"station_id":985828965,"stationCode":"43402","name":"Place de Verdun","lat":48.8202823,"lon":2.473775,"capacity":0,"station_opening_hours":null},{"station_id":338762459,"stationCode":"33018","name":"Edouard Poisson - Victor Hugo","lat":48.91118557052621,"lon":2.379864752692811,"capacity":0,"rental_methods":["CREDITCARD"],"station_opening_hours":null},{"station_id":323486248,"stationCode":"12013","name":"Montgallet - Reuilly","lat":48.844291,"lon":2.3896481,"capacity":0,"rental_methods":["CREDITCARD"],"station_opening_hours":null},{"station_id":38263504,"stationCode":"21305","name":"Place Jacques Madaule","lat":48.823933787309,"lon":2.2606918215752,"capacity":0,"station_opening_hours":null},{"station_id":501318622,"stationCode":"11115","name":"Montreuil - Gonnet","lat":48.850500564921,"lon":2.3890856287864,"capacity":0,"station_opening_hours":null},{"station_id":82337423,"stationCode":"7015","name":"Varenne","lat":48.857202661803,"lon":2.3152771219611,"capacity":0,"rental_methods":["CREDITCARD"],"station_opening_hours":null},{"station_id":376664868,"stationCode":"32303","name":"Gaston Roussel - Commune de Paris","lat":48.894320345532,"lon":2.4325522744195,"capacity":0,"rental_methods":["CREDITCARD"],"station_opening_hours":null},{"station_id":66491370,"stationCode":"6013","name":"Jacques Callot - Mazarine","lat":48.855280175332,"lon":2.3375743255019,"capacity":6,"rental_methods":["CREDITCARD"],"station_opening_hours":null},{"station_id":27071684,"stationCode":"12115","name":"Porte de Vincennes","lat":48.846454,"lon":2.415514,"capacity":0,"station_opening_hours":null},{"station_id":54000544,"stationCode":"5021","name":"Jussieu - Fossés Saint-Bernard","lat":48.847185510023,"lon":2.3534858599305,"capacity":0,"rental_methods":["CREDITCARD"],"station_opening_hours":null},{"station_id":49403716,"stationCode":"8033","name":"Commandant Rivière","lat":48.872933,"lon":2.309796,"capacity":0,"rental_methods":["CREDITCARD"],"station_opening_hours":null},{"station_id":470807791,"stationCode":"16121","name":"Jardin d'Acclimatation","lat":48.878772242510465,"lon":2.270772233605385,"capacity":0,"rental_methods":["CREDITCARD"],"station_opening_hours":null},{"station_id":568135465,"stationCode":"23001","name":"Paul Vaillant Couturier - Chaptal","lat":48.893479576183,"lon":2.2775253653526,"capacity":0,"rental_methods":["CREDITCARD"],"station_opening_hours":null},{"station_id":82450803,"stationCode":"15010","name":"Square Cambronne","lat":48.84756654526,"lon":2.3025691509247,"capacity":0,"rental_methods":["CREDITCARD"],"station_opening_hours":null},{"station_id":214102967,"stationCode":"41102","name":"Gare de Laplace","lat":48.80893199114179,"lon":2.3349460959434514,"capacity":0,"rental_methods":["CREDITCARD"],"station_opening_hours":null},{"station_id":54000597,"stationCode":"17037","name":"Bayen - Pereire","lat":48.881804409079656,"lon":2.2921088710427284,"capacity":3,"station_opening_hours":null},{"station_id":2515658032,"stationCode":"18141","name":"Clignancourt - Sofia","lat":48.88511992309783,"lon":2.34719488842051,"capacity":0,"station_opening_hours":null},{"station_id":652192395,"stationCode":"16124","name":"Route de Sèvres - Porte de Bagatelle","lat":48.87525984132485,"lon":2.249415814876557,"capacity":0,"rental_methods":["CREDITCARD"],"station_opening_hours":null},{"station_id":571923059,"stationCode":"33003","name":"Bordier - Félix Faure","lat":48.90390751882016,"lon":2.3830059170722966,"capacity":0,"station_opening_hours":null},{"station_id":54000635,"stationCode":"33009","name":"Félix Faure - Sadi Carnot","lat":48.90812110228388,"lon":2.378623187541962,"capacity":0,"rental_methods":["CREDITCARD"],"station_opening_hours":null},{"station_id":35908,"stationCode":"5106","name":"Cujas - Saint-Michel","lat":48.848191348584,"lon":2.341831654854,"capacity":0,"rental_methods":["CREDITCARD"],"station_opening_hours":null},{"station_id":1062179194,"stationCode":"25005","name":"18 juin 1940 - Buzenval","lat":48.868807,"lon":2.185428,"capacity":0,"station_opening_hours":null},{"station_id":1063017616,"stationCode":"22505","name":"Mairie de La Garenne Colombes","lat":48.90663823468682,"lon":2.24679596722126,"capacity":0,"station_opening_hours":null},{"station_id":378648513,"stationCode":"13045","name":"Jean Colly - Tolbiac","lat":48.827817291597846,"lon":2.3705490678548813,"capacity":0,"rental_methods":["CREDITCARD"],"station_opening_hours":null},{"station_id":27278603,"stationCode":"19115","name":"Porte de la Villette","lat":48.89835196548483,"lon":2.386150136590004,"capacity":0,"rental_methods":["CREDITCARD"],"station_opening_hours":null},{"station_id":13497763,"stationCode":"14034","name":"Ouest - Château ","lat":48.83617286014242,"lon":2.319392143923804,"capacity":0,"rental_methods":["CREDITCARD"],"station_opening_hours":null},{"station_id":653042442,"stationCode":"32010","name":"Place aux Étoiles","lat":48.91835629408464,"lon":2.3523425683379173,"capacity":0,"rental_methods":["CREDITCARD"],"station_opening_hours":null},{"station_id":49807107,"stationCode":"16018","name":"Flandrin - Henri Martin","lat":48.8643275,"lon":2.2724174,"capacity":0,"rental_methods":["CREDITCARD"],"station_opening_hours":null},{"station_id":210747224,"stationCode":"12034","name":"Pirogues de Bercy - Libourne","lat":48.832308,"lon":2.38637,"capacity":0,"rental_methods":["CREDITCARD"],"station_opening_hours":null},{"station_id":357409723,"stationCode":"15033","name":"Place Violet","lat":48.84487893836502,"lon":2.2905756533145905,"capacity":0,"station_opening_hours":null},{"station_id":17992442278,"stationCode":"25008","name":"Place du 8 Mai 1945","lat":48.871552174017,"lon":2.2025031970585,"capacity":0,"station_opening_hours":null},{"station_id":52393,"stationCode":"19044","name":"Grands Moulins de Pantin","lat":48.89738369720229,"lon":2.3959985375404362,"capacity":0,"station_opening_hours":null},{"station_id":570185777,"stationCode":"24002","name":"Gare de Courbevoie","lat":48.8993867,"lon":2.2506506,"capacity":0,"rental_methods":["CREDITCARD"],"station_opening_hours":null},{"station_id":473204291,"stationCode":"33001","name":"Victor Hugo - Magasins Généraux","lat":48.903281401126755,"lon":2.368072383105755,"capacity":0,"station_opening_hours":null},{"station_id":27363103,"stationCode":"16034","name":"Porte d'Auteuil","lat":48.8479394142243,"lon":2.2608396783471107,"capacity":0,"station_opening_hours":null},{"station_id":631773910,"stationCode":"41404","name":"Carnot - Pâquerettes","lat":48.79592939432515,"lon":2.4261841177940373,"capacity":0,"station_opening_hours":null},{"station_id":210568512,"stationCode":"7009","name":"Assemblée Nationale","lat":48.861411014652,"lon":2.3201214185208,"capacity":0,"rental_methods":["CREDITCARD"],"station_opening_hours":null},{"station_id":85145704,"stationCode":"20132","name":"Réunion - Avron","lat":48.852566752033766,"lon":2.403928068708116,"capacity":0,"station_opening_hours":null},{"station_id":85165045,"stationCode":"42707","name":"Place Jean-Baptiste Clément","lat":48.81240466867336,"lon":2.3617091774940495,"capacity":0,"station_opening_hours":null},{"station_id":475524450,"stationCode":"92003","name":"Chanzy - Sud-Est","lat":48.888912037698766,"lon":2.195632159709931,"capacity":0,"station_opening_hours":null},{"station_id":653048150,"stationCode":"5119","name":"Jussieu - Guy de la Brosse","lat":48.845665,"lon":2.355653,"capacity":0,"station_opening_hours":null},{"station_id":244400797,"stationCode":"35009","name":"Jean Lolive - Parc Stalingrad","lat":48.89206174403158,"lon":2.4091735482215886,"capacity":0,"rental_methods":["CREDITCARD"],"station_opening_hours":null},{"station_id":129001431,"stationCode":"8055","name":"Courcelles - Place des Ternes","lat":48.878199928923124,"lon":2.2992860188665043,"capacity":7,"station_opening_hours":null},{"station_id":653203262,"stationCode":"27002","name":"Parc Pierre Lagravère","lat":48.92650488131725,"lon":2.239069678491417,"capacity":0,"station_opening_hours":null},{"station_id":406806401,"stationCode":"21109","name":"Guichet - Jean Jaurès","lat":48.905169868129036,"lon":2.3023840785026555,"capacity":0,"station_opening_hours":null},{"station_id":1063035479,"stationCode":"23701","name":"Parvis Robert Schuman - Roger Salengro","lat":48.812657470558754,"lon":2.1921751275658607,"capacity":0,"station_opening_hours":null},{"station_id":54000595,"stationCode":"17007","name":"Navier - Epinettes","lat":48.89587780769155,"lon":2.3226776719093327,"capacity":0,"rental_methods":["CREDITCARD"],"station_opening_hours":null},{"station_id":82571110,"stationCode":"21502","name":"Verdun - Place Henri IV","lat":48.870797375639214,"lon":2.2277003154158592,"capacity":0,"rental_methods":["CREDITCARD"],"station_opening_hours":null},{"station_id":217235307,"stationCode":"31012","name":"Place Carnot","lat":48.85593932186797,"lon":2.441531717777252,"capacity":0,"rental_methods":["CREDITCARD"],"station_opening_hours":null},{"station_id":82421994,"stationCode":"12024","name":"Gare de Bercy","lat":48.839794573906,"lon":2.3826066032052,"capacity":0,"rental_methods":["CREDITCARD"],"station_opening_hours":null},{"station_id":129086648,"stationCode":"16129","name":"Ceinture du Lac Inferieure - Saint-Cloud","lat":48.86218070933143,"lon":2.2617871686816216,"capacity":0,"rental_methods":["CREDITCARD"],"station_opening_hours":null},{"station_id":217572769,"stationCode":"35019","name":"Anatole France - Jean Lolive","lat":48.8949922,"lon":2.4253764,"capacity":0,"rental_methods":["CREDITCARD"],"station_opening_hours":null},{"station_id":214298601,"stationCode":"14104","name":"Boyer-Barret - Raymond Losserand","lat":48.83329880233322,"lon":2.3173383995890617,"capacity":0,"rental_methods":["CREDITCARD"],"station_opening_hours":null},{"station_id":129125489,"stationCode":"20113","name":"Piat - Parc de Belleville","lat":48.87195626635528,"lon":2.384981390278095,"capacity":0,"station_opening_hours":null},{"station_id":26958435,"stationCode":"20119","name":"Square des Saint-Simoniens","lat":48.8701796,"lon":2.3967273,"capacity":0,"station_opening_hours":null},{"station_id":213922790,"stationCode":"31705","name":"Champeaux - Gallieni","lat":48.864459134684644,"lon":2.4161778017878532,"capacity":0,"rental_methods":["CREDITCARD"],"station_opening_hours":null},{"station_id":37936869,"stationCode":"6030","name":"Assas - Vaugirard","lat":48.848274111398,"lon":2.3292413726449,"capacity":0,"station_opening_hours":null},{"station_id":19016722230,"stationCode":"23802","name":"Raymond Poincaré - Allée de la Marche","lat":48.838634069623,"lon":2.1724102640451,"capacity":0,"rental_methods":["CREDITCARD"],"station_opening_hours":null},{"station_id":210748575,"stationCode":"12126","name":"Gravelle - Route du Bac","lat":48.824407,"lon":2.418455,"capacity":6,"rental_methods":["CREDITCARD"],"station_opening_hours":null},{"station_id":129119449,"stationCode":"20036","name":"Ménilmontant - Pelleport","lat":48.870682633845,"lon":2.3989596023316,"capacity":0,"station_opening_hours":null},{"station_id":6385,"stationCode":"19019","name":"Petit - Manin","lat":48.886506875343,"lon":2.3938155401308,"capacity":0,"rental_methods":["CREDITCARD"],"station_opening_hours":null},{"station_id":214122655,"stationCode":"41604","name":"Lagny - Joffre","lat":48.84930687084088,"lon":2.417949736118317,"capacity":0,"station_opening_hours":null},{"station_id":82458977,"stationCode":"15017","name":"Place Falguière","lat":48.83629973941847,"lon":2.3104464635252953,"capacity":0,"station_opening_hours":null},{"station_id":129077035,"stationCode":"15029","name":"Emeriau - Place de Brazzaville","lat":48.850785261674964,"lon":2.2871585190296173,"capacity":0,"rental_methods":["CREDITCARD"],"station_opening_hours":null},{"station_id":15461933,"stationCode":"17018","name":"Parc Monceau","lat":48.881077914129,"lon":2.3095492646098,"capacity":0,"station_opening_hours":null},{"station_id":216473073,"stationCode":"18005","name":"Tardieu - Chappe","lat":48.884146759782,"lon":2.341845408082,"capacity":0,"station_opening_hours":null},{"station_id":37521,"stationCode":"10005","name":"Petites Ecuries - Faubourg Poissonnière","lat":48.87397217237368,"lon":2.348388757504776,"capacity":0,"station_opening_hours":null},{"station_id":985086307,"stationCode":"26001","name":"Gare d'Asnières sur Seine","lat":48.90636459217474,"lon":2.2835066914558415,"capacity":0,"rental_methods":["CREDITCARD"],"station_opening_hours":null},{"station_id":2515976231,"stationCode":"92004","name":"Nanterre - Université","lat":48.901365,"lon":2.212693,"capacity":0,"rental_methods":["CREDITCARD"],"station_opening_hours":null},{"station_id":129103849,"stationCode":"18020","name":"Francoeur - Marcadet","lat":48.89104123261663,"lon":2.340014585442034,"capacity":0,"rental_methods":["CREDITCARD"],"station_opening_hours":null},{"station_id":1057009034,"stationCode":"20136","name":"Henri Chevreau - Couronnes","lat":48.87033205312931,"lon":2.388777695596218,"capacity":0,"rental_methods":["CREDITCARD"],"station_opening_hours":null},{"station_id":82334007,"stationCode":"5026","name":"Pascal - Claude Bernard","lat":48.839061952159746,"lon":2.3499782010912895,"capacity":0,"rental_methods":["CREDITCARD"],"station_opening_hours":null},{"station_id":214146056,"stationCode":"43006","name":"Vignerons - Minimes","lat":48.841486,"lon":2.430793,"capacity":0,"rental_methods":["CREDITCARD"],"station_opening_hours":null},{"station_id":15308782,"stationCode":"5002","name":"Sommerard - Saint-Jacques","lat":48.850310432924466,"lon":2.345015835298588,"capacity":0,"rental_methods":["CREDITCARD"],"station_opening_hours":null},{"station_id":85008390,"stationCode":"15028","name":"Grenelle - Dr Finlay","lat":48.851315406715976,"lon":2.2919502854347233,"capacity":0,"rental_methods":["CREDITCARD"],"station_opening_hours":null},{"station_id":216039437,"stationCode":"8102","name":"Lamennais - Washington ","lat":48.87352990026496,"lon":2.303444892168045,"capacity":0,"station_opening_hours":null},{"station_id":43155320,"stationCode":"14018","name":"Porte d'Orléans","lat":48.8227639,"lon":2.3249313,"capacity":0,"rental_methods":["CREDITCARD"],"station_opening_hours":null},{"station_id":221047138,"stationCode":"31702","name":"Pierre et Marie Curie - Julien Grimau","lat":48.870714014863225,"lon":2.424097023904324,"capacity":0,"station_opening_hours":null},{"station_id":210567545,"stationCode":"7004","name":"Raspail - Varenne","lat":48.853147816545,"lon":2.3263905197382,"capacity":0,"station_opening_hours":null},{"station_id":129130397,"stationCode":"21013","name":"Pierre Grenier - Pont de Billancourt","lat":48.8258020742942,"lon":2.2487989068031315,"capacity":0,"station_opening_hours":null},{"station_id":653129412,"stationCode":"42503","name":"Vladimir Ilitch Lénine - Andrée Chedid","lat":48.813240124373,"lon":2.3319716067039,"capacity":0,"rental_methods":["CREDITCARD"],"station_opening_hours":null},{"station_id":419381597,"stationCode":"21111","name":"Professeur René Leriche - Général Leclerc ","lat":48.90782845483013,"lon":2.307887971401215,"capacity":0,"rental_methods":["CREDITCARD"],"station_opening_hours":null},{"station_id":54000466,"stationCode":"2010","name":"Uzès - Montmartre","lat":48.870790980240706,"lon":2.3431010171771054,"capacity":0,"rental_methods":["CREDITCARD"],"station_opening_hours":null},{"station_id":426772876,"stationCode":"11114","name":"Ledru-Rollin - Charonne","lat":48.85345855607243,"lon":2.3772463581947094,"capacity":0,"station_opening_hours":null},{"station_id":653046029,"stationCode":"5116","name":"Place Valhubert","lat":48.844182577315,"lon":2.3640366643667,"capacity":0,"rental_methods":["CREDITCARD"],"station_opening_hours":null},{"station_id":54000548,"stationCode":"7006","name":"Quai Voltaire","lat":48.858942986179,"lon":2.3314182047146,"capacity":0,"rental_methods":["CREDITCARD"],"station_opening_hours":null},{"station_id":27414601,"stationCode":"7014","name":"Saint-François-Xavier","lat":48.85154484769,"lon":2.3146149516106,"capacity":3,"rental_methods":["CREDITCARD"],"station_opening_hours":null},{"station_id":215495494,"stationCode":"8012","name":"Batignolles - Place de Clichy","lat":48.883474535757,"lon":2.326493114233,"capacity":0,"rental_methods":["CREDITCARD"],"station_opening_hours":null},{"station_id":74620630,"stationCode":"20040","name":"Parc de Belleville - Julien Lacroix","lat":48.8703459,"lon":2.3842214,"capacity":0,"station_opening_hours":null},{"station_id":129091653,"stationCode":"17017","name":"Gare de Pont-Cardinet","lat":48.88713901475306,"lon":2.314494143994255,"capacity":0,"rental_methods":["CREDITCARD"],"station_opening_hours":null},{"station_id":129036192,"stationCode":"10023","name":"Gare de l'Est - Verdun","lat":48.876156054271,"lon":2.3609149083206,"capacity":0,"station_opening_hours":null},{"station_id":11004671601,"stationCode":"34002","name":"Capitaine Glarner - Gabriel Péri","lat":48.902449900418745,"lon":2.3304807533425724,"capacity":0,"rental_methods":["CREDITCARD"],"station_opening_hours":null},{"station_id":210754072,"stationCode":"13026","name":"Place Jean Delay","lat":48.823316,"lon":2.354336,"capacity":0,"station_opening_hours":null},{"station_id":419991048,"stationCode":"23002","name":"Pont de Levallois-bécon ","lat":48.8984179,"lon":2.2791311,"capacity":0,"rental_methods":["CREDITCARD"],"station_opening_hours":null},{"station_id":2820744873,"stationCode":"14139","name":"Pierre Larousse - Raymond Losserand","lat":48.83059564231877,"lon":2.3119183257222176,"capacity":0,"rental_methods":["CREDITCARD"],"station_opening_hours":null},{"station_id":213676825,"stationCode":"13102","name":"Pitié-Salpêtrière","lat":48.83748810318667,"lon":2.365213818848133,"capacity":0,"station_opening_hours":null},{"station_id":15299574,"stationCode":"11101","name":"Charles Delescluze","lat":48.85242200848887,"lon":2.380632497370243,"capacity":0,"station_opening_hours":null},{"station_id":41566122,"stationCode":"15055","name":"Vasco de Gama","lat":48.83671783466264,"lon":2.283664085650799,"capacity":0,"station_opening_hours":null},{"station_id":963786819,"stationCode":"14130","name":"Jonquoy - Didot","lat":48.82890454823947,"lon":2.31648076325655,"capacity":0,"station_opening_hours":null},{"station_id":427678168,"stationCode":"10015","name":"Lucien Sampaix - Récollets","lat":48.874330377560476,"lon":2.3621229082345963,"capacity":0,"rental_methods":["CREDITCARD"],"station_opening_hours":null},{"station_id":976762284,"stationCode":"41207","name":"Place du Général de Gaulle","lat":48.8525288,"lon":2.4877332,"capacity":0,"rental_methods":["CREDITCARD"],"station_opening_hours":null},{"station_id":82421013,"stationCode":"12011","name":"Charenton - Place du Col Bourgoin","lat":48.844867319554,"lon":2.3825789350545,"capacity":0,"rental_methods":["CREDITCARD"],"station_opening_hours":null},{"station_id":434419150,"stationCode":"21308","name":"Bara - Henri Farman","lat":48.833218027457846,"lon":2.2677567601203923,"capacity":0,"station_opening_hours":null},{"station_id":220502135,"stationCode":"12032","name":"Porte Dorée","lat":48.8354337,"lon":2.4077132,"capacity":0,"rental_methods":["CREDITCARD"],"station_opening_hours":null},{"station_id":129114993,"stationCode":"19037","name":"Belleville - Porte des Lilas","lat":48.87660391892763,"lon":2.404769691129476,"capacity":0,"station_opening_hours":null},{"station_id":220726050,"stationCode":"6103","name":"Mézières - Rennes ","lat":48.85023459321703,"lon":2.3303819820284843,"capacity":0,"rental_methods":["CREDITCARD"],"station_opening_hours":null},{"station_id":254224239,"stationCode":"15038","name":"Place Adolphe Cherioux - Vaugirard","lat":48.83959442800459,"lon":2.3010657727718353,"capacity":0,"rental_methods":["CREDITCARD"],"station_opening_hours":null},{"station_id":1805401614,"stationCode":"21032","name":"Sèvres-Gallieni","lat":48.837809408957,"lon":2.2281519323587,"capacity":0,"station_opening_hours":null},{"station_id":85118872,"stationCode":"20021","name":"Indre - Prairies","lat":48.86254398506782,"lon":2.403290458023548,"capacity":0,"station_opening_hours":null},{"station_id":100859941,"stationCode":"7005","name":"Raspail - Bac","lat":48.855628721101,"lon":2.3256602883339,"capacity":0,"rental_methods":["CREDITCARD"],"station_opening_hours":null},{"station_id":224589573,"stationCode":"6018","name":"Michelet - Assas","lat":48.842741502832,"lon":2.3350211977959,"capacity":0,"station_opening_hours":null},{"station_id":252339799,"stationCode":"21019","name":"Edouard Vaillant - Paul-Adolphe Souriau","lat":48.834845858829,"lon":2.2479459643364,"capacity":0,"station_opening_hours":null},{"station_id":129134084,"stationCode":"21105","name":"Morice - Général Leclerc","lat":48.90245471981591,"lon":2.3128929734230046,"capacity":0,"station_opening_hours":null},{"station_id":129116697,"stationCode":"19109","name":"Tanger - Place du Maroc","lat":48.8862524447104,"lon":2.3689296841621403,"capacity":0,"station_opening_hours":null},{"station_id":977409509,"stationCode":"31019","name":"Vincennes - Douy-Delcupe","lat":48.85493692155721,"lon":2.436049282550812,"capacity":0,"station_opening_hours":null},{"station_id":653055049,"stationCode":"32014","name":"Place du Cornillon - Stade de France","lat":48.92540695835961,"lon":2.3644426837563515,"capacity":0,"rental_methods":["CREDITCARD"],"station_opening_hours":null},{"station_id":221041655,"stationCode":"18032","name":"Porte de Clignancourt.","lat":48.897488,"lon":2.343996,"capacity":0,"rental_methods":["CREDITCARD"],"station_opening_hours":null},{"station_id":1057769632,"stationCode":"17124","name":"Porte de Saint-Ouen - Henri Huchard","lat":48.898708366365064,"lon":2.3295360803604126,"capacity":0,"station_opening_hours":null},{"station_id":1333959209,"stationCode":"44012","name":"Génie - Mozart","lat":48.794902381218904,"lon":2.3734183609485626,"capacity":0,"station_opening_hours":null},{"station_id":213690256,"stationCode":"17027","name":"Place du Maréchal Juin - Péreire","lat":48.885263,"lon":2.298286,"capacity":0,"rental_methods":["CREDITCARD"],"station_opening_hours":null},{"station_id":632007124,"stationCode":"31016","name":"Lucie Aubrac - Franklin","lat":48.86223916006812,"lon":2.4435862898826604,"capacity":0,"rental_methods":["CREDITCARD"],"station_opening_hours":null},{"station_id":977206088,"stationCode":"51003","name":"Hôtel de Ville d'Argenteuil","lat":48.946504,"lon":2.2496396,"capacity":0,"rental_methods":["CREDITCARD"],"station_opening_hours":null},{"station_id":213868408,"stationCode":"22101","name":"Gare Routière de Saint Cloud","lat":48.84288183896324,"lon":2.222245037555695,"capacity":0,"rental_methods":["CREDITCARD"],"station_opening_hours":null},{"station_id":129061615,"stationCode":"13016","name":"Primo Levi - Frigos","lat":48.83094844846017,"lon":2.37965351592796,"capacity":0,"rental_methods":["CREDITCARD"],"station_opening_hours":null},{"station_id":224598098,"stationCode":"13043","name":"Dunois - Clisson","lat":48.832294,"lon":2.3674523,"capacity":0,"rental_methods":["CREDITCARD"],"station_opening_hours":null},{"station_id":82381710,"stationCode":"8051","name":"Batignolles - Rome","lat":48.881823370566806,"lon":2.3202589899301524,"capacity":0,"station_opening_hours":null},{"station_id":120564786,"stationCode":"2009","name":"Filles Saint-Thomas - Place de la Bourse","lat":48.868899890853,"lon":2.3397543845203,"capacity":1,"station_opening_hours":null},{"station_id":82508970,"stationCode":"44102","name":"Verdun - Adrien Damalix","lat":48.8222334178559,"lon":2.4215328320860863,"capacity":0,"rental_methods":["CREDITCARD"],"station_opening_hours":null},{"station_id":653055097,"stationCode":"9115","name":"Milton - Manuel","lat":48.878249,"lon":2.341181,"capacity":0,"station_opening_hours":null},{"station_id":27246227,"stationCode":"19039","name":"Edouard Pailleron - Simon Bolivar ","lat":48.87979886049996,"lon":2.374839261174202,"capacity":0,"station_opening_hours":null},{"station_id":63297,"stationCode":"16032","name":"Eglise d'Auteuil","lat":48.84749841771691,"lon":2.26848387135299,"capacity":0,"station_opening_hours":null},{"station_id":95927849,"stationCode":"21003","name":"Jean Jaurès - Jean Baptiste Clément ","lat":48.84576261454011,"lon":2.2369650006294255,"capacity":1,"rental_methods":["CREDITCARD"],"station_opening_hours":null},{"station_id":102341385,"stationCode":"22001","name":"Château - Bineau","lat":48.890404028589806,"lon":2.270106375217438,"capacity":0,"rental_methods":["CREDITCARD"],"station_opening_hours":null},{"station_id":54000605,"stationCode":"18025","name":"Mairie du 18ème","lat":48.892939296937605,"lon":2.3445510864257812,"capacity":0,"rental_methods":["CREDITCARD"],"station_opening_hours":null},{"station_id":979059925,"stationCode":"17122","name":"Bridaine - Lamandé","lat":48.8862074,"lon":2.3206239,"capacity":0,"station_opening_hours":null},{"station_id":6512,"stationCode":"20027","name":"Porte de Ménilmontant","lat":48.8691543609174,"lon":2.40932246879487,"capacity":0,"station_opening_hours":null},{"station_id":27363323,"stationCode":"9023","name":"Laffitte - Italiens","lat":48.871815737396,"lon":2.3372015478451,"capacity":0,"station_opening_hours":null},{"station_id":10968855,"stationCode":"14122","name":"Colonel Monteil - Brune","lat":48.82650293311,"lon":2.3092747998272,"capacity":0,"station_opening_hours":null},{"station_id":221038698,"stationCode":"16123","name":"Mahatma Gandhi","lat":48.876356,"lon":2.264205,"capacity":26,"station_opening_hours":null},{"station_id":129145892,"stationCode":"31007","name":"Paris - Désiré Préaux","lat":48.85742876694898,"lon":2.4323049187660217,"capacity":25,"station_opening_hours":null},{"station_id":102289046,"stationCode":"15108","name":"Lourmel - Marie Skobtsov","lat":48.844974,"lon":2.287283,"capacity":4,"station_opening_hours":null},{"station_id":124402232,"stationCode":"19040","name":"Belleville - Télégraphe","lat":48.8756045,"lon":2.3995549,"capacity":0,"station_opening_hours":null},{"station_id":27415327,"stationCode":"17047","name":"Courcelles - Pierre Demours","lat":48.883769733273496,"lon":2.29858466343129,"capacity":0,"rental_methods":["CREDITCARD"],"station_opening_hours":null},{"station_id":100798076,"stationCode":"6016","name":"Danton - Serpente","lat":48.852297362582,"lon":2.3414132371545,"capacity":0,"rental_methods":["CREDITCARD"],"station_opening_hours":null},{"station_id":1063404053,"stationCode":"41204","name":"République - Danton","lat":48.85249172181667,"lon":2.462034523487091,"capacity":0,"station_opening_hours":null},{"station_id":54000598,"stationCode":"17046","name":"Mac-Mahon - Brey","lat":48.877532084130166,"lon":2.294512536052928,"capacity":0,"rental_methods":["CREDITCARD"],"station_opening_hours":null},{"station_id":989753852,"stationCode":"17121","name":"Square des Epinettes","lat":48.89383909781389,"lon":2.325953990221024,"capacity":0,"station_opening_hours":null},{"station_id":82577019,"stationCode":"19009","name":"Cité des Sciences et de l'Industrie","lat":48.89659571178903,"lon":2.384599149227142,"capacity":0,"rental_methods":["CREDITCARD"],"station_opening_hours":null},{"station_id":39256416,"stationCode":"18109","name":"Pajol - Riquet ","lat":48.88960028134536,"lon":2.3628534749150276,"capacity":0,"rental_methods":["CREDITCARD"],"station_opening_hours":null},{"station_id":255207155,"stationCode":"19038","name":"Lassus - Delouvain","lat":48.8755044846,"lon":2.3890327325519,"capacity":0,"station_opening_hours":null},{"station_id":63769334,"stationCode":"18029","name":"Emile Blemont - Poteau","lat":48.8943782,"lon":2.3415122,"capacity":0,"rental_methods":["CREDITCARD"],"station_opening_hours":null},{"station_id":129136818,"stationCode":"21703","name":"Square du Carrefour de l'Insurrection","lat":48.820864559770676,"lon":2.291113436222077,"capacity":0,"station_opening_hours":null},{"station_id":653080986,"stationCode":"35017","name":"Toffier Decaux - Cartier Bresson","lat":48.90165072551549,"lon":2.4017545580863957,"capacity":0,"station_opening_hours":null},{"station_id":27415469,"stationCode":"20118","name":"Orteaux - Mouraud","lat":48.85558642847872,"lon":2.408762907764669,"capacity":0,"station_opening_hours":null},{"station_id":39599631,"stationCode":"16021","name":"François Ponsard - La Muette ","lat":48.8583666,"lon":2.2744515,"capacity":0,"rental_methods":["CREDITCARD"],"station_opening_hours":null},{"station_id":84979504,"stationCode":"9031","name":"Provence - Chaussée d'Antin","lat":48.87428447542072,"lon":2.332976511564311,"capacity":0,"rental_methods":["CREDITCARD"],"station_opening_hours":null},{"station_id":653059015,"stationCode":"9117","name":"Bellefond - Maubeuge","lat":48.878255397645,"lon":2.3452642187476,"capacity":0,"rental_methods":["CREDITCARD"],"station_opening_hours":null},{"station_id":85120104,"stationCode":"20023","name":"Pelleport - Belgrand","lat":48.86500081847653,"lon":2.403980836377493,"capacity":0,"station_opening_hours":null},{"station_id":205047993,"stationCode":"14002","name":"Edgar Quinet - Raspail","lat":48.83940266673835,"lon":2.32971478253603,"capacity":0,"rental_methods":["CREDITCARD"],"station_opening_hours":null},{"station_id":101748685,"stationCode":"15035","name":"Place Etienne Pernet","lat":48.84243457133779,"lon":2.2921819612383847,"capacity":0,"rental_methods":["CREDITCARD"],"station_opening_hours":null},{"station_id":54000608,"stationCode":"18049","name":"Porte d'Aubervilliers","lat":48.89859661942376,"lon":2.3689722642302513,"capacity":0,"station_opening_hours":null},{"station_id":121025345,"stationCode":"10020","name":"Chabrol - d'Hauteville","lat":48.877018388033,"lon":2.3513179644942,"capacity":0,"station_opening_hours":null},{"station_id":213692714,"stationCode":"18113","name":"Lepic - Armée d'Orient","lat":48.887536403814,"lon":2.3343077301979,"capacity":0,"station_opening_hours":null},{"station_id":11218807773,"stationCode":"34010","name":"Hôtel de Ville de Saint-Ouen","lat":48.911380185786,"lon":2.3340076807601,"capacity":0,"rental_methods":["CREDITCARD"],"station_opening_hours":null},{"station_id":66491394,"stationCode":"11041","name":"Square Saint-Ambroise","lat":48.860934,"lon":2.375841,"capacity":1,"rental_methods":["CREDITCARD"],"station_opening_hours":null},{"station_id":102743096,"stationCode":"31703","name":"Sadi Carnot - François Mitterrand ","lat":48.87532687671517,"lon":2.4241617321968083,"capacity":0,"station_opening_hours":null},{"station_id":126175087,"stationCode":"35003","name":"Gabrielle Josserand - Edouard Vaillant","lat":48.90271566255436,"lon":2.3933270573616032,"capacity":0,"rental_methods":["CREDITCARD"],"station_opening_hours":null},{"station_id":101746493,"stationCode":"15031","name":"Théâtre - Lourmel","lat":48.8482070397636,"lon":2.2898658737540245,"capacity":0,"rental_methods":["CREDITCARD"],"station_opening_hours":null},{"station_id":27363137,"stationCode":"21014","name":"Hameau Fleuri - Marché","lat":48.831448892608314,"lon":2.2412404417991643,"capacity":0,"station_opening_hours":null},{"station_id":653050378,"stationCode":"5121","name":"Square René Viviani - Montebello","lat":48.851904891406,"lon":2.3478421568871,"capacity":0,"rental_methods":["CREDITCARD"],"station_opening_hours":null},{"station_id":82404497,"stationCode":"11006","name":"Ledru-Rollin - Place du Père Chaillet","lat":48.856433706943704,"lon":2.379020587761426,"capacity":0,"rental_methods":["CREDITCARD"],"station_opening_hours":null},{"station_id":1968156458,"stationCode":"47005","name":"Ecole Vétérinaire","lat":48.81488859822486,"lon":2.4224362157778994,"capacity":0,"rental_methods":["CREDITCARD"],"station_opening_hours":null},{"station_id":991351798,"stationCode":"19127","name":"Aubervilliers - Curial","lat":48.89088305227546,"lon":2.3688579350709915,"capacity":0,"rental_methods":["CREDITCARD"],"station_opening_hours":null},{"station_id":7304,"stationCode":"16015","name":"Bassano -  Iéna","lat":48.868144510482075,"lon":2.296149600985935,"capacity":0,"station_opening_hours":null},{"station_id":54000592,"stationCode":"15070","name":"Balard - Montagne de la Fage","lat":48.83850740333351,"lon":2.2782871127128606,"capacity":0,"station_opening_hours":null},{"station_id":1002738770,"stationCode":"1120","name":"Lavandieres Sainte Opportune - Rivoli","lat":48.859279702476,"lon":2.3466217517853,"capacity":0,"station_opening_hours":null},{"station_id":15409531,"stationCode":"14112","name":"Méchain - Faubourg Saint-Jacques","lat":48.83586772099485,"lon":2.33798034198275,"capacity":0,"station_opening_hours":null},{"station_id":29327,"stationCode":"47004","name":"Stade Auguste Delaune","lat":48.80896378683884,"lon":2.4345204234123234,"capacity":0,"rental_methods":["CREDITCARD"],"station_opening_hours":null},{"station_id":36298,"stationCode":"9026","name":"Jean-Baptiste Pigalle - La Bruyere","lat":48.87939826447722,"lon":2.333709173337285,"capacity":1,"rental_methods":["CREDITCARD"],"station_opening_hours":null},{"station_id":37903195,"stationCode":"21001","name":"Transvaal - Charles de Gaulle ","lat":48.848280403628806,"lon":2.2373420120857195,"capacity":0,"rental_methods":["CREDITCARD"],"station_opening_hours":null},{"station_id":102313219,"stationCode":"18033","name":"Belliard - Damrémont","lat":48.89669238777841,"lon":2.338023450388167,"capacity":0,"rental_methods":["CREDITCARD"],"station_opening_hours":null},{"station_id":100906707,"stationCode":"11010","name":"Boulets - Faubourg Saint-Antoine","lat":48.849259262115,"lon":2.3917546141943,"capacity":0,"station_opening_hours":null},{"station_id":624177860,"stationCode":"16122","name":"Route de la Muette - Porte de Neuilly","lat":48.8798926,"lon":2.2587671,"capacity":0,"rental_methods":["CREDITCARD"],"station_opening_hours":null},{"station_id":27369223,"stationCode":"15002","name":"Maine - Antoine Bourdelle","lat":48.84308531746595,"lon":2.320263946784738,"capacity":0,"rental_methods":["CREDITCARD"],"station_opening_hours":null},{"station_id":102336814,"stationCode":"21310","name":"Kléber - Gouverneur Général Eboué","lat":48.826885843069796,"lon":2.2723413258790965,"capacity":0,"station_opening_hours":null},{"station_id":484423835,"stationCode":"23007","name":"Président Wilson - Jean Jaures","lat":48.89034054052266,"lon":2.2920683026313786,"capacity":0,"station_opening_hours":null},{"station_id":54000618,"stationCode":"20016","name":"Pyrénées - Maraîchers","lat":48.85714001395299,"lon":2.4043509364128113,"capacity":0,"rental_methods":["CREDITCARD"],"station_opening_hours":null},{"station_id":653059879,"stationCode":"32015","name":"Gare RER de Saint-Denis","lat":48.93554324248177,"lon":2.3471488058567047,"capacity":0,"rental_methods":["CREDITCARD"],"station_opening_hours":null},{"station_id":210583589,"stationCode":"10010","name":"Place Jacques Bonsergent","lat":48.870948218595,"lon":2.3612049221992,"capacity":0,"rental_methods":["CREDITCARD"],"station_opening_hours":null},{"station_id":15291968,"stationCode":"16043","name":"Place de Passy","lat":48.85780291711202,"lon":2.277500546942199,"capacity":0,"station_opening_hours":null},{"station_id":15387809,"stationCode":"16027","name":"Mozart - Jasmin","lat":48.85286124871689,"lon":2.268483570651513,"capacity":0,"rental_methods":["CREDITCARD"],"station_opening_hours":null},{"station_id":66491407,"stationCode":"20116","name":"Haies - Réunion","lat":48.85386896766491,"lon":2.402426162238911,"capacity":0,"station_opening_hours":null},{"station_id":221094844,"stationCode":"6107","name":"Place Alphonse Deville","lat":48.850188262662,"lon":2.3275961726904,"capacity":0,"station_opening_hours":null},{"station_id":15397468,"stationCode":"16029","name":"Maison de Radio - France","lat":48.85132886434057,"lon":2.277785539627075,"capacity":5,"rental_methods":["CREDITCARD"],"station_opening_hours":null},{"station_id":84966359,"stationCode":"8019","name":"Naples - Rome","lat":48.879960700846226,"lon":2.321358695626259,"capacity":0,"rental_methods":["CREDITCARD"],"station_opening_hours":null},{"station_id":42908639,"stationCode":"9017","name":"Lallier - Trudaine ","lat":48.88109246617963,"lon":2.3408224806189537,"capacity":0,"rental_methods":["CREDITCARD"],"station_opening_hours":null},{"station_id":125469898,"stationCode":"18008","name":"Square Léon","lat":48.88667396788626,"lon":2.353205569088459,"capacity":0,"station_opening_hours":null},{"station_id":54000549,"stationCode":"7008","name":"Villersexel - Saint-Germain","lat":48.858297001218,"lon":2.3237934708595,"capacity":0,"station_opening_hours":null},{"station_id":52329,"stationCode":"16112","name":"Chernoviz - Raynouard","lat":48.8569864146289,"lon":2.282173218142987,"capacity":0,"station_opening_hours":null},{"station_id":85162552,"stationCode":"42703","name":"Fontainebleau - Edmond Michelet","lat":48.80956436844049,"lon":2.3626908659935,"capacity":0,"rental_methods":["CREDITCARD"],"station_opening_hours":null},{"station_id":54000586,"stationCode":"14030","name":"Pernety - Raymond Losserand","lat":48.834254627953,"lon":2.317609339387,"capacity":0,"rental_methods":["CREDITCARD"],"station_opening_hours":null},{"station_id":2515738489,"stationCode":"20201","name":"Eugène Reisz - Davout","lat":48.85631874632638,"lon":2.410396970808506,"capacity":0,"station_opening_hours":null},{"station_id":256561528,"stationCode":"13046","name":"Eugène Oudiné - Dessous Des Berges","lat":48.8256423,"lon":2.3750226,"capacity":2,"station_opening_hours":null},{"station_id":452920451,"stationCode":"22102","name":"Mont Valérien - Michel Salles","lat":48.8561915,"lon":2.2152966,"capacity":0,"rental_methods":["CREDITCARD"],"station_opening_hours":null},{"station_id":54000588,"stationCode":"15003","name":"Gare Montparnasse - Vaugirard","lat":48.8418071798797,"lon":2.31951002690117,"capacity":0,"station_opening_hours":null},{"station_id":1020700136,"stationCode":"4110","name":"Neuve Saint-Pierre - Beautreillis","lat":48.85355351439652,"lon":2.3639122769236565,"capacity":0,"station_opening_hours":null},{"station_id":100855693,"stationCode":"6032","name":"Sabot - Rennes","lat":48.852575112948415,"lon":2.331552766263485,"capacity":0,"rental_methods":["CREDITCARD"],"station_opening_hours":null},{"station_id":102304517,"stationCode":"17022","name":"Pereire - Place de Wagram","lat":48.887070607581215,"lon":2.304111124531457,"capacity":0,"rental_methods":["CREDITCARD"],"station_opening_hours":null},{"station_id":128889359,"stationCode":"7020","name":"Champ de Mars - Cler","lat":48.856691550115315,"lon":2.306646779179573,"capacity":0,"rental_methods":["CREDITCARD"],"station_opening_hours":null},{"station_id":210737808,"stationCode":"10036","name":"Aqueduc - Villette","lat":48.883886063895,"lon":2.367198803315,"capacity":0,"station_opening_hours":null},{"station_id":17526921983,"stationCode":"23304","name":"Mairie de Sceaux","lat":48.778916905132,"lon":2.2887361764861,"capacity":0,"station_opening_hours":null},{"station_id":54000546,"stationCode":"6017","name":"Sénat - Condé","lat":48.84954227788459,"lon":2.337939441204071,"capacity":0,"rental_methods":["CREDITCARD"],"station_opening_hours":null},{"station_id":35137730,"stationCode":"13103","name":"Hôpital Pitié Salpêtrière","lat":48.8377016,"lon":2.3604946,"capacity":0,"rental_methods":["CREDITCARD"],"station_opening_hours":null},{"station_id":912377361,"stationCode":"12161","name":"Diderot - Reuilly","lat":48.847208456061,"lon":2.3861273378134,"capacity":0,"rental_methods":["CREDITCARD"],"station_opening_hours":null},{"station_id":259977414,"stationCode":"15107","name":"Palais des Sports","lat":48.833468517426,"lon":2.2858720645308,"capacity":0,"rental_methods":["CREDITCARD"],"station_opening_hours":null},{"station_id":36473,"stationCode":"9101","name":"Cadet - La Fayette","lat":48.875601632672,"lon":2.3435704037547,"capacity":0,"rental_methods":["CREDITCARD"],"station_opening_hours":null},{"station_id":129101773,"stationCode":"18017","name":"Caulaincourt - Place Constantin Pecqueur","lat":48.889677905028,"lon":2.3381787144261,"capacity":0,"rental_methods":["CREDITCARD"],"station_opening_hours":null},{"station_id":256124192,"stationCode":"19041","name":"Belleville - Pyrénées","lat":48.8741908,"lon":2.3860039,"capacity":1,"station_opening_hours":null},{"station_id":100918666,"stationCode":"11043","name":"Place Pasdeloup","lat":48.862654215631,"lon":2.3670325062844,"capacity":0,"rental_methods":["CREDITCARD"],"station_opening_hours":null},{"station_id":1002059045,"stationCode":"1117","name":"Pont Neuf - Rivoli","lat":48.860089892617,"lon":2.344057559967,"capacity":0,"rental_methods":["CREDITCARD"],"station_opening_hours":null},{"station_id":17527110170,"stationCode":"23903","name":"Stade Gaston Bouillant","lat":48.939958667023,"lon":2.3279571813836,"capacity":0,"station_opening_hours":null},{"station_id":284787594,"stationCode":"13010","name":"Place d'Italie - Vincent Auriol","lat":48.831481874467,"lon":2.3567550292319,"capacity":0,"rental_methods":["CREDITCARD"],"station_opening_hours":null},{"station_id":82568336,"stationCode":"31704","name":"Jeanne Hornet - Girardot","lat":48.873802681432146,"lon":2.427820265293122,"capacity":2,"station_opening_hours":null},{"station_id":66491408,"stationCode":"32603","name":"Calmette","lat":48.88104925098552,"lon":2.424993216991425,"capacity":0,"station_opening_hours":null},{"station_id":18175885970,"stationCode":"17201","name":"Porte Maillot - Perreire","lat":48.878021154637,"lon":2.2842371277102,"capacity":0,"rental_methods":["CREDITCARD"],"station_opening_hours":null},{"station_id":213848056,"stationCode":"21311","name":"Parvis Corentin Celton","lat":48.82747252522725,"lon":2.2784319519996648,"capacity":0,"rental_methods":["CREDITCARD"],"station_opening_hours":null},{"station_id":54000545,"stationCode":"15059","name":"Parc André Citroën","lat":48.840639944296655,"lon":2.2780618071556096,"capacity":0,"rental_methods":["CREDITCARD"],"station_opening_hours":null},{"station_id":17527065847,"stationCode":"23403","name":"Chateau","lat":48.774661399959,"lon":2.3135878035462,"capacity":0,"rental_methods":["CREDITCARD"],"station_opening_hours":null},{"station_id":54000541,"stationCode":"4013","name":"Vieille du Temple - Francs Bourgeois","lat":48.858256413365815,"lon":2.35821794718504,"capacity":6,"rental_methods":["CREDITCARD"],"station_opening_hours":null},{"station_id":1025995767,"stationCode":"45001","name":"Hôtel de Ville de Champigny sur Marne","lat":48.813810628405,"lon":2.5096759200096,"capacity":0,"rental_methods":["CREDITCARD"],"station_opening_hours":null},{"station_id":1034242363,"stationCode":"31023","name":"Place François Mitterand","lat":48.86492782016328,"lon":2.442958317697048,"capacity":0,"rental_methods":["CREDITCARD"],"station_opening_hours":null},{"station_id":1021553839,"stationCode":"9118","name":"Faubourg Poissonniere - Delta","lat":48.882555807626765,"lon":2.3497482016682625,"capacity":0,"rental_methods":["CREDITCARD"],"station_opening_hours":null},{"station_id":1021176825,"stationCode":"21024","name":"Billancourt - Général Leclerc ","lat":48.8322649,"lon":2.2380413,"capacity":0,"rental_methods":["CREDITCARD"],"station_opening_hours":null},{"station_id":653065577,"stationCode":"10163","name":"Gare du Nord - Demarquay","lat":48.881154,"lon":2.358411,"capacity":0,"rental_methods":["CREDITCARD"],"station_opening_hours":null},{"station_id":335780498,"stationCode":"2001","name":"Greneta - Sebastopol","lat":48.865242333228,"lon":2.3516669869423,"capacity":0,"rental_methods":["CREDITCARD"],"station_opening_hours":null},{"station_id":54000611,"stationCode":"19023","name":"Manin - Simon Bolivar","lat":48.876499654127,"lon":2.3794073625991,"capacity":0,"rental_methods":["CREDITCARD"],"station_opening_hours":null},{"station_id":484387018,"stationCode":"20019","name":"Place du Maquis du Vercors","lat":48.877321579493575,"lon":2.4083782732486725,"capacity":0,"rental_methods":["CREDITCARD"],"station_opening_hours":null},{"station_id":1035816937,"stationCode":"18137","name":"Poissonniers - Nord","lat":48.892511213520656,"lon":2.3522228747606277,"capacity":0,"station_opening_hours":null},{"station_id":544249939,"stationCode":"7101","name":"Raspail - Chomel","lat":48.852233164303,"lon":2.3266580700874,"capacity":0,"rental_methods":["CREDITCARD"],"station_opening_hours":null},{"station_id":224256188,"stationCode":"8056","name":"Beaujon - Wagram","lat":48.875352455985,"lon":2.2964416444302,"capacity":0,"rental_methods":["CREDITCARD"],"station_opening_hours":null},{"station_id":66507229,"stationCode":"17116","name":"Reims - Porte d'Asnières","lat":48.891834448210986,"lon":2.300144659954865,"capacity":0,"station_opening_hours":null},{"station_id":1023083417,"stationCode":"18138","name":"Station Paris Basketball - Ney - Charles Hermite","lat":48.898748039775,"lon":2.3645754531026,"capacity":0,"rental_methods":["CREDITCARD"],"station_opening_hours":null},{"station_id":82432573,"stationCode":"13041","name":"Porte d'Ivry","lat":48.821768747596,"lon":2.3688706755638,"capacity":7,"station_opening_hours":null},{"station_id":66491386,"stationCode":"7016","name":"Surcouf - Université","lat":48.861273016278,"lon":2.3094535509142,"capacity":2,"rental_methods":["CREDITCARD"],"station_opening_hours":null},